name,trace,lat,lng,country_id
Ordino,Ordino,42.5563,1.5327,20
Canillo,Canillo,42.567,1.5981,20
Encamp,Encamp,42.5361,1.5828,20
Sant Julià de Lòria,Sant Julia de Loria,42.4664,1.4933,20
Les Escaldes,Les Escaldes,42.5085,1.5385,20
Andorra,Andorra,42.5,1.5165,20
La Massana,La Massana,42.5434,1.5148,20
Dubai,Dubai,25.23,55.28,784
Umm al Qaywayn,Umm al Qaywayn,25.5653,55.5533,784
Abu Dhabi,Abu Dhabi,24.4667,54.3666,784
‘Ajmān,`Ajman,25.4056,55.4618,784
Ras al Khaymah,Ras al Khaymah,25.7915,55.9428,784
Al Ayn,Al Ayn,24.2305,55.74,784
Al Fujayrah,Al Fujayrah,25.1234,56.3375,784
Sharjah,Sharjah,25.3714,55.4065,784
Kabul,Kabul,34.5167,69.1833,4
Lashkar Gah,Lashkar Gah,31.583,64.36,4
Kandahar,Kandahar,31.61,65.6949,4
Sharan,Sharan,33.1757,68.7304,4
Herat,Herat,34.33,62.17,4
Ghazni,Ghazni,33.5633,68.4178,4
Maīdān Shahr,Maidan Shahr,34.3956,68.8662,4
Andkhvoy,Andkhvoy,36.9317,65.1015,4
Pol-e Khomri,Pol-e Khomri,35.9511,68.7011,4
Mazar-e Sharif,Mazar-e Sharif,36.7,67.1,4
Sar-e Pul,Sar-e Pul,36.2154,65.9325,4
Meymaneh,Meymaneh,35.9302,64.7701,4
Gardiz,Gardiz,33.6001,69.2146,4
Zaranj,Zaranj,31.112,61.887,4
Jalalabad,Jalalabad,34.4415,70.4361,4
Zareh Sharan,Zareh Sharan,32.85,68.4167,4
Tarin Kowt,Tarin Kowt,32.6333,65.8667,4
Aybak,Aybak,36.261,68.04,4
Sheberghan,Sheberghan,36.658,65.7383,4
Khōst,Khost,33.3395,69.9204,4
Farah,Farah,32.3917,62.0968,4
Mahmud-E Eraqi,Mahmud-E Eraqi,35.0167,69.3333,4
Qala i Naw,Qala i Naw,34.983,63.1333,4
Feyzabad,Feyzabad,37.1298,70.5792,4
Charikar,Charikar,35.0183,69.1679,4
Nīlī,Nili,33.7218,66.1302,4
Asadabad,Asadabad,34.866,71.15,4
Kondoz,Kondoz,36.728,68.8725,4
Qalat,Qalat,32.1123,66.8868,4
Taloqan,Taloqan,36.73,69.54,4
Mayda Shahr,Mayda Shahr,34.45,68.8,4
Balkh,Balkh,36.7501,66.8997,4
Baghlan,Baghlan,36.1393,68.6993,4
Bamian,Bamian,34.8211,67.521,4
Karokh,Karokh,34.4868,62.5918,4
Baraki Barak,Baraki Barak,33.9667,68.9667,4
Pul-e ‘Alam,Pul-e `Alam,33.9953,69.0227,4
Pārūn,Parun,35.4206,70.9226,4
Chaghcharan,Chaghcharan,34.5167,65.25,4
Bāzārak,Bazarak,35.3129,69.5152,4
Mehtar Lam,Mehtar Lam,34.65,70.1667,4
Saint John's,Saint John's,17.118,-61.85,28
The Valley,The Valley,18.2167,-63.05,660
Korçë,Korce,40.6167,20.7667,8
Librazhd,Librazhd,41.2,20.3667,8
Berat,Berat,40.71,19.972,8
Krujë,Kruje,41.519,19.797,8
Tepelenë,Tepelene,40.2833,20.0333,8
Rrëshen,Rreshen,41.7833,19.8167,8
Pukë,Puke,42.0333,19.8833,8
Shkodër,Shkoder,42.0685,19.5188,8
Lushnjë,Lushnje,40.94,19.716,8
Ersekë,Erseke,40.3333,20.6833,8
Çorovodë,Corovode,40.5167,20.2333,8
Durrës,Durres,41.3178,19.4482,8
Burrel,Burrel,41.626,20.016,8
Kukës,Kukes,42.083,20.434,8
Gjirokastër,Gjirokaster,40.079,20.149,8
Lezhë,Lezhe,41.788,19.654,8
Sarandë,Sarande,39.877,20,8
Përmet,Permet,40.234,20.352,8
Pogradec,Pogradec,40.9,20.664,8
Vlorë,Vlore,40.4774,19.4982,8
Elbasan,Elbasan,41.1215,20.0838,8
Peshkopi,Peshkopi,41.6833,20.4333,8
Fier,Fier,40.73,19.573,8
Bajram Curri,Bajram Curri,42.3333,20.0833,8
Tirana,Tirana,41.3275,19.8189,8
Gramsh,Gramsh,40.8667,20.2,8
Gyumri,Gyumri,40.7894,43.8475,51
Gavarr,Gavarr,40.3589,45.1267,51
Artashat,Artashat,39.9539,44.5506,51
Armavir,Armavir,40.1545,44.0382,51
Ijevan,Ijevan,40.8788,45.1485,51
Hrazdan,Hrazdan,40.4941,44.7602,51
Vanadzor,Vanadzor,40.8128,44.4883,51
Ashtarak,Ashtarak,40.3017,44.3592,51
Kapan,Kapan,39.2075,46.4058,51
Ijevan,Ijevan,40.8756,45.1492,51
Yerevan,Yerevan,40.1812,44.5136,51
Yeghegnadzor,Yeghegnadzor,39.7611,45.3333,51
Luiana,Luiana,-17.3695,23,24
Benguela,Benguela,-12.5783,13.4072,24
Cangamba,Cangamba,-13.6996,19.86,24
Cabinda,Cabinda,-5.5596,12.19,24
Lubango,Lubango,-14.9167,13.5,24
Huambo,Huambo,-12.75,15.76,24
Chitado,Chitado,-17.3196,13.92,24
Luena,Luena,-11.79,19.9,24
Mucusso,Mucusso,-18.0195,21.43,24
Ndalatando,Ndalatando,-9.2995,14.91,24
Ondjiva,Ondjiva,-17.0696,15.73,24
Mbanza-Congo,Mbanza-Congo,-6.2696,14.24,24
Mavinga,Mavinga,-15.7895,20.36,24
Capenda-Camulemba,Capenda-Camulemba,-9.4196,18.43,24
Calulo,Calulo,-9.9996,14.9,24
Calucinga,Calucinga,-11.3196,16.2,24
Xangongo,Xangongo,-16.74,14.97,24
Songo,Songo,-7.3496,14.85,24
Camabatela,Camabatela,-8.1896,15.37,24
Cacolo,Cacolo,-10.1496,19.26,24
Ambriz,Ambriz,-7.855,13.125,24
Dondo,Dondo,-9.69,14.43,24
Saurimo,Saurimo,-9.6596,20.39,24
Luanda,Luanda,-8.8383,13.2344,24
Waku Kungo,Waku Kungo,-11.3595,15.12,24
Nzeto,Nzeto,-7.2296,12.86,24
Quipungo,Quipungo,-14.8295,14.55,24
Uíge,Uige,-7.62,15.05,24
Quibala,Quibala,-10.7296,14.98,24
Menongue,Menongue,-14.6666,17.7,24
Sumbe,Sumbe,-11.21,13.85,24
Luau,Luau,-10.7095,22.23,24
Caxito,Caxito,-8.5795,13.66,24
Cazombo,Cazombo,-11.8896,22.9,24
Malanje,Malanje,-9.54,16.34,24
Lobito,Lobito,-12.37,13.5412,24
Soyo,Soyo,-6.1296,12.37,24
Kuito,Kuito,-12.38,16.94,24
Cuito Caunavale,Cuito Caunavale,-15.1596,19.17,24
Chibemba,Chibemba,-15.7496,14.08,24
Chibia,Chibia,-15.1896,13.69,24
Camacupa,Camacupa,-12.0196,17.47,24
Cubal,Cubal,-13.0396,14.24,24
Namibe,Namibe,-15.19,12.16,24
Tômbua,Tombua,-15.8,11.86,24
Lucapa,Lucapa,-8.4196,20.74,24
Dundo,Dundo,-7.38,20.83,24
Lubango,Lubango,-14.91,13.49,24
Muconda,Muconda,-10.5996,21.32,24
San Juan,San Juan,-31.55,-68.52,32
Ushuaia,Ushuaia,-54.79,-68.31,32
Santa Rosa,Santa Rosa,-36.62,-64.3,32
Los Blancos,Los Blancos,-23.5996,-62.6,32
General Roca,General Roca,-39.02,-67.61,32
Río Gallegos,Rio Gallegos,-51.6333,-69.2166,32
Santa Fe,Santa Fe,-31.6239,-60.69,32
28 de Noviembre,28 de Noviembre,-51.65,-72.3,32
San Lorenzo,San Lorenzo,-28.12,-58.77,32
Salta,Salta,-24.7834,-65.4166,32
Darregueira,Darregueira,-37.6996,-63.1666,32
Trelew,Trelew,-43.25,-65.33,32
Rawson,Rawson,-43.3,-65.1,32
La Rioja,La Rioja,-29.41,-66.85,32
Villalonga,Villalonga,-39.8829,-62.5833,32
Viedma,Viedma,-40.8,-63,32
Sunchales,Sunchales,-30.9329,-61.5666,32
Comondante Luis Piedrabuena,Comondante Luis Piedrabuena,-49.9745,-68.9035,32
Pedro Luro,Pedro Luro,-39.4833,-62.6833,32
San Salvador de Jujuy,San Salvador de Jujuy,-24.1833,-65.3,32
Resistencia,Resistencia,-27.46,-58.99,32
Posadas,Posadas,-27.3578,-55.8851,32
Paso Rio Mayo,Paso Rio Mayo,-45.6834,-70.2666,32
Venado Tuerto,Venado Tuerto,-33.7496,-61.97,32
Corrientes,Corrientes,-27.49,-58.81,32
Formosa,Formosa,-26.1728,-58.1828,32
Las Lomitas,Las Lomitas,-24.6996,-60.6,32
La Plata,La Plata,-34.9096,-57.96,32
Mar de Ajó,Mar de Ajo,-36.7162,-56.6766,32
Cutral Có,Cutral Co,-38.94,-69.24,32
Ingeniero Jacobacci,Ingeniero Jacobacci,-41.3,-69.5833,32
Santiago del Estero,Santiago del Estero,-27.7833,-64.2667,32
Uspallata,Uspallata,-32.5931,-69.346,32
Tucumán,Tucuman,-26.816,-65.2166,32
Comallo,Comallo,-41.0333,-70.2666,32
El Maitén,El Maiten,-42.05,-71.1666,32
Mendoza,Mendoza,-32.8833,-68.8166,32
Neuquén,Neuquen,-38.95,-68.06,32
Córdoba,Cordoba,-31.4,-64.1823,32
Catamarca,Catamarca,-28.47,-65.78,32
Villa Rumipal,Villa Rumipal,-32.1833,-64.4833,32
San Luis,San Luis,-33.3,-66.35,32
Río Tercero,Rio Tercero,-32.1796,-64.12,32
Malargüe,Malargue,-35.4661,-69.5833,32
Tinogasta,Tinogasta,-28.0666,-67.5666,32
Rinconada,Rinconada,-22.4329,-66.1666,32
Abra Pampa,Abra Pampa,-22.7167,-65.7,32
Humahuaca,Humahuaca,-23.2,-65.3499,32
Libertador General San Martín,Libertador General San Martin,-23.8195,-64.79,32
San Pedro,San Pedro,-24.2196,-64.87,32
Susques,Susques,-23.4167,-66.4833,32
Choele Choel,Choele Choel,-39.2666,-65.6833,32
General Conesa,General Conesa,-40.1,-64.4333,32
San Antonio Oeste,San Antonio Oeste,-40.7329,-64.9333,32
Sierra Colorado,Sierra Colorado,-40.5829,-67.8,32
San Carlos de Bariloche,San Carlos de Bariloche,-41.15,-71.3,32
Puerto Madryn,Puerto Madryn,-42.77,-65.04,32
Río Colorado,Rio Colorado,-38.9666,-64.0833,32
Sarmiento,Sarmiento,-45.6,-69.0833,32
Alto Rio Sanguer,Alto Rio Sanguer,-45.0333,-70.8333,32
Gastre,Gastre,-42.283,-69.2333,32
Pampa del Infierno,Pampa del Infierno,-26.5166,-61.1666,32
Charata,Charata,-27.2163,-61.2,32
Presidencia Roque Saenz Pena,Presidencia Roque Saenz Pena,-26.79,-60.45,32
Rodeo,Rodeo,-30.2156,-69.14,32
Mercedes,Mercedes,-33.6896,-65.47,32
Villa María,Villa Maria,-32.41,-63.26,32
Las Heras,Las Heras,-32.825,-68.8017,32
Chilecito,Chilecito,-29.1655,-67.5,32
Ingeniero Guillermo N. Juarez,Ingeniero Guillermo N. Juarez,-23.9,-61.85,32
Comandante Fontana,Comandante Fontana,-25.3333,-59.6833,32
Belen,Belen,-27.6496,-67.0333,32
Chumbicha,Chumbicha,-28.8666,-66.2333,32
Rio Grande,Rio Grande,-53.7914,-67.699,32
Puerto Deseado,Puerto Deseado,-47.75,-65.9,32
Perito Moreno,Perito Moreno,-46.6,-70.9334,32
Puerto San Julián,Puerto San Julian,-49.3,-67.7167,32
Gobernador Gregores,Gobernador Gregores,-48.7666,-70.25,32
San Martín,San Martin,-33.07,-68.49,32
La Paz,La Paz,-33.4661,-67.55,32
Tunuyán,Tunuyan,-33.5662,-69.0167,32
San Rafael,San Rafael,-34.6,-68.3333,32
General Pico,General Pico,-35.6596,-63.77,32
25 de Mayo,25 de Mayo,-37.8,-67.6833,32
Victorica,Victorica,-36.2163,-65.45,32
Juan José Castelli,Juan Jose Castelli,-25.9495,-60.6166,32
Victoria,Victoria,-32.61,-60.18,32
Eldorado,Eldorado,-26.2,-54.6,32
Trancas,Trancas,-26.2167,-65.2833,32
Chepes,Chepes,-31.35,-66.6,32
Chamical,Chamical,-30.3496,-66.3167,32
San Francisco,San Francisco,-31.43,-62.09,32
Concordia,Concordia,-31.3896,-58.03,32
El Calafate,El Calafate,-50.3333,-72.3,32
Chos Malal,Chos Malal,-37.383,-70.2666,32
Las Lajas,Las Lajas,-38.5163,-70.3666,32
Zapala,Zapala,-38.9,-70.0667,32
Telsen,Telsen,-42.3996,-66.95,32
Bell Ville,Bell Ville,-32.6,-62.68,32
Río Cuarto,Rio Cuarto,-33.13,-64.35,32
Villa Ángela,Villa Angela,-27.5833,-60.7167,32
Concepción del Uruguay,Concepcion del Uruguay,-32.48,-58.24,32
Gualeguaychú,Gualeguaychu,-33.02,-58.52,32
Gualeguay,Gualeguay,-33.15,-59.34,32
Comodoro Rivadavia,Comodoro Rivadavia,-45.87,-67.5,32
Esquel,Esquel,-42.9,-71.3166,32
Añatuya,Anatuya,-28.4661,-62.8333,32
Dolores,Dolores,-36.33,-57.69,32
Chascomús,Chascomus,-35.5662,-58.0166,32
Chivilcoy,Chivilcoy,-34.9,-60.04,32
Lincoln,Lincoln,-34.88,-61.5399,32
Goya,Goya,-29.14,-59.27,32
Frias,Frias,-28.6496,-65.15,32
Vera,Vera,-29.4662,-60.2166,32
Reconquista,Reconquista,-29.1395,-59.65,32
Monte Quemado,Monte Quemado,-25.7996,-62.8666,32
Campana,Campana,-34.16,-58.96,32
Zárate,Zarate,-34.0896,-59.04,32
Luján,Lujan,-34.5796,-59.11,32
Mercedes,Mercedes,-34.66,-59.44,32
San Nicolas,San Nicolas,-33.33,-60.24,32
Pergamino,Pergamino,-33.8996,-60.57,32
Chacabuco,Chacabuco,-34.65,-60.49,32
Junín,Junin,-34.5846,-60.9589,32
San Ramón de la Nueva Orán,San Ramon de la Nueva Oran,-23.14,-64.32,32
Tartagal,Tartagal,-22.55,-63.81,32
Joaquín V. González,Joaquin V. Gonzalez,-25.0833,-64.1834,32
General Guemes,General Guemes,-24.6666,-65.05,32
Cerrillos,Cerrillos,-24.8996,-65.4833,32
Cafayate,Cafayate,-26.0829,-65.9666,32
San Antonio de los Cobres,San Antonio de los Cobres,-24.1829,-66.35,32
Alta Gracia,Alta Gracia,-31.66,-64.43,32
Azul,Azul,-36.7796,-59.87,32
Lobos,Lobos,-35.1849,-59.0947,32
Veinticinco de Mayo,Veinticinco de Mayo,-35.43,-60.18,32
Nueve de Julio,Nueve de Julio,-35.446,-60.89,32
Mercedes,Mercedes,-29.1796,-58.08,32
Mar del Plata,Mar del Plata,-38,-57.58,32
Balcarce,Balcarce,-37.8333,-58.25,32
Juarez,Juarez,-37.6655,-59.8,32
Coronel Suárez,Coronel Suarez,-37.4666,-61.9166,32
Tandil,Tandil,-37.32,-59.15,32
Carhué,Carhue,-37.1829,-62.7333,32
Olavarría,Olavarria,-36.9,-60.33,32
Rafaela,Rafaela,-31.25,-61.5,32
San Justo,San Justo,-30.7829,-60.5833,32
Rosario,Rosario,-32.9511,-60.6663,32
Villa Constitución,Villa Constitucion,-33.23,-60.35,32
Bahía Blanca,Bahia Blanca,-38.74,-62.265,32
Punta Alta,Punta Alta,-38.88,-62.08,32
Tres Arroyos,Tres Arroyos,-38.37,-60.2699,32
Necochea,Necochea,-38.56,-58.75,32
Buenos Aires,Buenos Aires,-34.6025,-58.3975,32
Villa Carlos Paz,Villa Carlos Paz,-31.42,-64.5,32
Paraná,Parana,-31.7333,-60.5333,32
Pago Pago,Pago Pago,-14.274,-170.7046,16
Bregenz,Bregenz,47.5167,9.7667,40
Salzburg,Salzburg,47.8105,13.04,40
Eisenstadt,Eisenstadt,47.8333,16.5333,40
Innsbruck,Innsbruck,47.2804,11.41,40
Sankt Pölten,Sankt Polten,48.2,15.6333,40
Graz,Graz,47.0778,15.41,40
Linz,Linz,48.3192,14.2888,40
Vienna,Vienna,48.2,16.3666,40
Wiener Neustadt,Wiener Neustadt,47.816,16.25,40
Klagenfurt,Klagenfurt,46.6203,14.31,40
Port Denison,Port Denison,-29.2828,114.9166,36
Kwinana,Kwinana,-32.2394,115.7702,36
Kingoonya,Kingoonya,-30.8996,135.3,36
Port Hedland,Port Hedland,-20.3104,118.606,36
Port Lincoln,Port Lincoln,-34.7332,135.8666,36
Port Macquarie,Port Macquarie,-31.445,152.9187,36
Cranbourne,Cranbourne,-38.0996,145.2834,36
Portland,Portland,-38.34,141.59,36
Proserpine,Proserpine,-20.4162,148.5835,36
Busselton,Busselton,-33.6564,115.3487,36
Byron Bay,Byron Bay,-28.6565,153.6129,36
Caboolture,Caboolture,-27.083,152.95,36
Cooma,Cooma,-36.2396,149.12,36
Cairns,Cairns,-16.8878,145.7633,36
Sunbury,Sunbury,-37.5696,144.71,36
Sydney,Sydney,-33.92,151.1852,36
Karumba,Karumba,-17.4833,140.8334,36
Esperance,Esperance,-33.8573,121.8889,36
Exmouth,Exmouth,-21.9311,114.1233,36
Forbes,Forbes,-33.3896,148.02,36
Morawa,Morawa,-29.2163,116,36
Moree,Moree,-29.4699,149.8301,36
Katherine,Katherine,-14.4666,132.2666,36
Katoomba,Katoomba,-33.7069,150.32,36
Launceston,Launceston,-41.4498,147.1302,36
Laverton,Laverton,-28.627,122.404,36
Leeton,Leeton,-34.5449,146.3973,36
Leonara,Leonara,-28.8815,121.328,36
Seymour,Seymour,-37.0342,145.1273,36
Singleton,Singleton,-32.5695,151.16,36
Newcastle,Newcastle,-32.8453,151.815,36
Norseman,Norseman,-32.2,121.7666,36
Batemans Bay,Batemans Bay,-35.6896,150.2073,36
Bathurst,Bathurst,-33.4196,149.57,36
Griffith,Griffith,-34.29,146.04,36
Whyalla,Whyalla,-33.025,137.5614,36
Wilcannia,Wilcannia,-31.5662,143.3833,36
Katanning,Katanning,-33.6996,117.5501,36
Bongaree,Bongaree,-27.0787,153.1509,36
Bordertown,Bordertown,-36.3162,140.7666,36
Boulia,Boulia,-22.8996,139.9,36
Bourke,Bourke,-30.1,145.9333,36
Mackay,Mackay,-21.1439,149.15,36
Southern Cross,Southern Cross,-31.2161,119.3167,36
Tweed Heads,Tweed Heads,-28.1826,153.5466,36
Ulladulla,Ulladulla,-35.3495,150.47,36
Port Pirie,Port Pirie,-33.1911,137.99,36
Andamooka,Andamooka,-30.431,137.1656,36
Hervey Bay,Hervey Bay,-25.2887,152.8409,36
Gunnedah,Gunnedah,-30.987,150.2623,36
Gympie,Gympie,-26.1886,152.6709,36
Halls Creek,Halls Creek,-18.2667,127.7667,36
Hamilton,Hamilton,-37.7312,142.0234,36
Streaky Bay,Streaky Bay,-32.8119,134.2149,36
Mudgee,Mudgee,-32.5896,149.5801,36
Ivanhoe,Ivanhoe,-32.8996,144.3,36
Pannawonica,Pannawonica,-21.6366,116.325,36
Dubbo,Dubbo,-32.26,148.5973,36
Tom Price,Tom Price,-22.6935,117.7931,36
Parkes,Parkes,-33.1296,148.17,36
Sale,Sale,-38.1096,147.06,36
Bendigo,Bendigo,-36.76,144.28,36
Berri,Berri,-34.2829,140.6,36
Adelaide,Adelaide,-34.935,138.6,36
Adelaide River,Adelaide River,-13.2495,131.1,36
Albany,Albany,-35.0169,117.8916,36
Burketown,Burketown,-17.7161,139.5666,36
Burnie,Burnie,-41.0666,145.9167,36
Penola,Penola,-37.383,140.8167,36
Perth,Perth,-31.955,115.84,36
Peterborough,Peterborough,-32.9662,138.8333,36
Scone,Scone,-32.0796,150.8501,36
Scottsdale,Scottsdale,-41.1495,147.5167,36
Narrabri,Narrabri,-30.3319,149.7874,36
Narrogin,Narrogin,-32.9329,117.1666,36
Townsville,Townsville,-19.25,146.77,36
Traralgon,Traralgon,-38.1996,146.53,36
Central Coast,Central Coast,-33.42,151.3,36
Broome,Broome,-17.9618,122.2308,36
Bunbury,Bunbury,-33.3443,115.6502,36
Wyndham,Wyndham,-15.374,128.3601,36
Yamba,Yamba,-29.423,153.3533,36
Tumby Bay,Tumby Bay,-34.3829,136.0833,36
Forster-Tuncurry,Forster-Tuncurry,-32.1931,152.5266,36
Bundaberg,Bundaberg,-24.8791,152.3509,36
Yulara,Yulara,-25.2405,130.9889,36
Victor Harbor,Victor Harbor,-35.5596,138.6173,36
Richmond,Richmond,-20.7163,143.1333,36
Rockhampton,Rockhampton,-23.3639,150.52,36
Roebourne,Roebourne,-20.7829,117.1333,36
Roma,Roma,-26.5594,148.7907,36
Cloncurry,Cloncurry,-20.7,140.5,36
Cobram,Cobram,-35.9196,145.65,36
Coffs Harbour,Coffs Harbour,-30.3071,153.1123,36
Colac,Colac,-38.3395,143.58,36
Alice Springs,Alice Springs,-23.701,133.88,36
Ararat,Ararat,-37.2795,142.91,36
Carnarvon,Carnarvon,-24.8998,113.6501,36
Ceduna,Ceduna,-32.0991,133.6623,36
Charleville,Charleville,-26.4,146.25,36
Charters Towers,Charters Towers,-20.0809,146.2587,36
Kalbarri,Kalbarri,-27.6662,114.1667,36
Kununurra,Kununurra,-15.7666,128.7333,36
Dalby,Dalby,-27.1939,151.2657,36
Lithgow,Lithgow,-33.4961,150.1528,36
Manjimup,Manjimup,-34.2333,116.15,36
Maitland,Maitland,-32.721,151.555,36
Mandurah,Mandurah,-32.5235,115.7471,36
Karratha,Karratha,-20.7304,116.87,36
Gawler,Gawler,-34.6074,138.7264,36
Geelong,Geelong,-38.1675,144.3956,36
Georgetown,Georgetown,-18.3,143.5333,36
Geraldton,Geraldton,-28.7666,114.6,36
Maryborough,Maryborough,-37.0496,143.73,36
Maryborough,Maryborough,-25.5491,152.7209,36
McMinns Lagoon,McMinns Lagoon,-12.5329,131.05,36
Toowoomba,Toowoomba,-27.5645,151.9555,36
Onslow,Onslow,-21.6576,115.0963,36
Orange,Orange,-33.28,149.1,36
Stawell,Stawell,-37.0596,142.76,36
Echuca,Echuca,-36.1296,144.75,36
Eidsvold,Eidsvold,-25.3662,151.1333,36
Emerald,Emerald,-23.5122,148.1673,36
Tamworth,Tamworth,-31.1026,150.9171,36
Taree,Taree,-31.8976,152.4618,36
Ballarat,Ballarat,-37.5596,143.84,36
Ballina,Ballina,-28.8614,153.568,36
Barcaldine,Barcaldine,-23.5662,145.2834,36
Mount Barker,Mount Barker,-34.6328,117.6666,36
Mount Gambier,Mount Gambier,-37.8313,140.765,36
Mount Isa,Mount Isa,-20.7239,139.49,36
Mount Magnet,Mount Magnet,-28.0662,117.8167,36
Kempsey,Kempsey,-31.0874,152.822,36
Queanbeyan,Queanbeyan,-35.3546,149.2113,36
Queenstown,Queenstown,-42.0829,145.55,36
Quilpie,Quilpie,-26.6166,144.25,36
Ravensthorpe,Ravensthorpe,-33.5829,120.0333,36
Warrnambool,Warrnambool,-38.38,142.47,36
Warwick,Warwick,-28.2292,152.0203,36
Weipa,Weipa,-12.6666,141.8666,36
Ouyen,Ouyen,-35.0662,142.3167,36
Wollongong,Wollongong,-34.4154,150.89,36
Wonthaggi,Wonthaggi,-38.6095,145.59,36
Kiama,Kiama,-34.7096,150.84,36
Kimba,Kimba,-33.1496,136.4334,36
Kingaroy,Kingaroy,-26.539,151.8406,36
Pine Creek,Pine Creek,-13.8162,131.8167,36
Hobart,Hobart,-42.85,147.295,36
Darwin,Darwin,-12.4254,130.85,36
Gingin,Gingin,-31.3496,115.9,36
Meekatharra,Meekatharra,-26.6,118.4833,36
Melbourne,Melbourne,-37.82,144.975,36
Woomera,Woomera,-31.1496,136.8,36
Moranbah,Moranbah,-22.0016,148.038,36
Port Augusta,Port Augusta,-32.49,137.77,36
Port Douglas,Port Douglas,-16.4846,145.4587,36
Gladstone,Gladstone,-23.8533,151.2467,36
Gold Coast,Gold Coast,-28.0815,153.4482,36
Horsham,Horsham,-36.7096,142.19,36
Hughenden,Hughenden,-20.85,144.2,36
Northam,Northam,-31.6566,116.6534,36
Nowra,Nowra,-34.8828,150.6,36
Shepparton,Shepparton,-36.3746,145.3914,36
Yeppoon,Yeppoon,-23.1329,150.7567,36
Young,Young,-34.3096,148.29,36
Caloundra,Caloundra,-26.8,153.1333,36
Ingham,Ingham,-18.6496,146.1666,36
Innisfail,Innisfail,-17.5313,146.0387,36
Inverell,Inverell,-29.7668,151.1126,36
Kingston,Kingston,-42.9911,147.3084,36
Kingston South East,Kingston South East,-36.8328,139.8501,36
Clare,Clare,-33.8329,138.6,36
Bowen,Bowen,-20.0013,148.2087,36
Melton,Melton,-37.6895,144.57,36
Meningie,Meningie,-35.6995,139.3333,36
Merimbula,Merimbula,-36.8996,149.9,36
Merredin,Merredin,-31.4828,118.2667,36
Mildura,Mildura,-34.185,142.1514,36
Thargomindah,Thargomindah,-28,143.8167,36
Theodore,Theodore,-24.9495,150.0833,36
Three Springs,Three Springs,-29.5333,115.75,36
Oatlands,Oatlands,-42.2996,147.3666,36
Wagin,Wagin,-33.2996,117.35,36
Armidale,Armidale,-30.5123,151.6675,36
Atherton,Atherton,-17.2703,145.4694,36
Ayr,Ayr,-19.5702,147.3995,36
Bairnsdale,Bairnsdale,-37.8296,147.61,36
Camooweal,Camooweal,-19.9167,138.1167,36
Canberra,Canberra,-35.283,149.129,36
Longreach,Longreach,-23.4496,144.25,36
Brisbane,Brisbane,-27.455,153.0351,36
Devonport,Devonport,-41.1927,146.3311,36
Wallaroo,Wallaroo,-33.9329,137.6333,36
Wangaratta,Wangaratta,-36.36,146.3,36
Cowell,Cowell,-33.6829,136.9166,36
Cowra,Cowra,-33.8296,148.68,36
Goondiwindi,Goondiwindi,-28.5548,150.3253,36
Goulburn,Goulburn,-34.7496,149.7102,36
Grafton,Grafton,-29.712,152.9377,36
Murray Bridge,Murray Bridge,-35.1296,139.26,36
Muswellbrook,Muswellbrook,-32.2696,150.89,36
Windorah,Windorah,-25.4332,142.6502,36
Bedourie,Bedourie,-24.3496,139.4666,36
Newman,Newman,-23.3666,119.7333,36
Birdsville,Birdsville,-25.8996,139.3666,36
Kalgoorlie,Kalgoorlie,-30.7354,121.46,36
Biloela,Biloela,-24.3936,150.4961,36
Richmond,Richmond,-33.5995,150.74,36
Bicheno,Bicheno,-41.8784,148.2886,36
Deniliquin,Deniliquin,-35.5296,144.95,36
Broken Hill,Broken Hill,-31.95,141.4331,36
Swan Hill,Swan Hill,-35.3396,143.54,36
Albury,Albury,-36.06,146.92,36
Wagga Wagga,Wagga Wagga,-35.1222,147.34,36
Tumut,Tumut,-35.3096,148.22,36
Lismore,Lismore,-28.8167,153.2931,36
Winton,Winton,-22.3996,143.0333,36
Smithton,Smithton,-40.8329,145.1167,36
Oranjestad,Oranjestad,12.5304,-70.029,533
Goranboy,Goranboy,40.6103,46.7897,31
Füzuli,Fuzuli,39.6009,47.1453,31
Lankaran,Lankaran,38.754,48.8511,31
Xocalı,Xocali,39.913,46.7903,31
Saki,Saki,41.1923,47.1705,31
Astara,Astara,38.456,48.875,31
Xocavənd,Xocavand,39.7955,47.1099,31
Cəbrayıl,Cabrayil,39.3992,47.0283,31
Beyləqan,Beylaqan,39.7756,47.6186,31
Masallı,Masalli,39.0278,48.6703,31
Biləsuvar,Bilasuvar,39.4583,48.545,31
Baku,Baku,40.3953,49.8622,31
Xızı,Xizi,40.9058,49.0813,31
Dəvəçi,Davaci,41.2012,48.9871,31
Ağsu,Agsu,40.5692,48.3965,31
Yevlax,Yevlax,40.6172,47.15,31
Mingəçevir,Mingacevir,40.7639,47.0595,31
Ağdam,Agdam,39.991,46.9274,31
Sumqayt,Sumqayt,40.58,49.63,31
Xaçmaz,Xacmaz,41.4643,48.8057,31
İmişli,Imisli,39.8724,48.0649,31
Saatlı,Saatli,39.9321,48.3689,31
Laçın,Lacin,39.6434,46.5462,31
Şərur,Sarur,39.5544,44.9826,31
Cəlilabad,Calilabad,39.2096,48.4919,31
Heydərabad,Heydarabad,39.7229,44.8485,31
Yardımlı,Yardimli,38.9077,48.2405,31
Şahbuz,Sahbuz,39.4072,45.5739,31
Qıvraq,Qivraq,39.3994,45.1151,31
Kapan,Kapan,39.2015,46.415,31
Ganca,Ganca,40.685,46.35,31
Zəngilan,Zangilan,39.0884,46.6513,31
Goycay,Goycay,40.6534,47.7406,31
Siyəzən,Siyazan,41.0775,49.1126,31
Ağdaş,Agdas,40.647,47.4738,31
Naftalan,Naftalan,40.5082,46.8203,31
Naxcivan,Naxcivan,39.2092,45.4122,31
Qubadlı,Qubadli,39.3444,46.5818,31
Hacıqabul,Haciqabul,40.0387,48.9429,31
Kürdəmir,Kurdamir,40.3453,48.1508,31
Qobustan,Qobustan,40.5336,48.9282,31
Bərdə,Barda,40.3758,47.1262,31
Ucar,Ucar,40.5157,47.6546,31
Lerik,Lerik,38.7739,48.415,31
Stepanakert,Stepanakert,39.8156,46.752,31
Şuşa,Susa,39.7601,46.7499,31
Daşkəsən,Daskasan,40.5239,46.0819,31
Salyan,Salyan,39.5962,48.9848,31
Zərdab,Zardab,40.2199,47.71,31
Qusar,Qusar,41.4275,48.4302,31
Ali Bayramli,Ali Bayramli,39.9323,48.9203,31
Sabirabad,Sabirabad,40.0087,48.477,31
Quba,Quba,41.3611,48.5134,31
Gadabay,Gadabay,40.5656,45.8161,31
Oğuz,Oguz,41.0708,47.4583,31
Balakən,Balakan,41.7263,46.4048,31
Qax,Qax,41.4183,46.9204,31
Xırdalan,Xirdalan,40.4481,49.755,31
Neftçala,Neftcala,39.3768,49.247,31
Tərtər,Tartar,40.3418,46.9324,31
Ağcabədi,Agcabadi,40.0501,47.4594,31
Kəlbəcər,Kalbacar,40.1098,46.0445,31
Qazax,Qazax,41.0925,45.3656,31
Ağstafa,Agstafa,41.1148,45.4468,31
Tovuz,Tovuz,40.9922,45.6289,31
Qəbələ,Qabala,40.9825,47.8491,31
Agdam,Agdam,40.9053,45.5564,31
İsmayıllı,Ismayilli,40.7848,48.1514,31
Samux,Samux,40.7649,46.4087,31
Şəmkir,Samkir,40.8297,46.0178,31
Ordubad,Ordubad,38.9096,46.0227,31
Qabala,Qabala,40.9814,47.8458,31
Zaqatala,Zaqatala,41.6316,46.6448,31
Göygöl,Goygol,40.5858,46.3189,31
Brčko,Brcko,44.87,18.8101,70
Tuzla,Tuzla,44.5505,18.68,70
Sarajevo,Sarajevo,43.85,18.383,70
Banja Luka,Banja Luka,44.7804,17.18,70
Prijedor,Prijedor,44.9804,16.7,70
Mostar,Mostar,43.3505,17.82,70
Zenica,Zenica,44.22,17.92,70
Bridgetown,Bridgetown,13.102,-59.6165,52
Narayanganj,Narayanganj,23.6204,90.5,50
Khulna,Khulna,22.84,89.56,50
Jessore,Jessore,23.1704,89.2,50
Chittagong,Chittagong,22.33,91.8,50
Barisal,Barisal,22.7004,90.375,50
Comilla,Comilla,23.4704,91.17,50
Dhaka,Dhaka,23.7231,90.4086,50
Pabna,Pabna,24.0004,89.25,50
Saidpur,Saidpur,25.8004,89,50
Tangail,Tangail,24.25,89.92,50
Rajshahi,Rajshahi,24.375,88.605,50
Jamalpur,Jamalpur,24.9004,89.95,50
Rangpur,Rangpur,25.75,89.28,50
Mymensingh,Mymensingh,24.7504,90.38,50
Sylhet,Sylhet,24.9036,91.8736,50
Nawabganj,Nawabganj,24.5804,88.35,50
Brussels,Brussels,50.8333,4.3333,56
Antwerpen,Antwerpen,51.2204,4.415,56
Brugge,Brugge,51.2204,3.23,56
Liège,Liege,50.63,5.58,56
Mons,Mons,50.446,3.939,56
Gent,Gent,51.03,3.7,56
Namur,Namur,50.4704,4.87,56
Hasselt,Hasselt,50.964,5.484,56
Arlon,Arlon,49.6833,5.8167,56
Charleroi,Charleroi,50.4204,4.45,56
Tougan,Tougan,13.069,-3.07,854
Pô,Po,11.169,-1.135,854
Bobo Dioulasso,Bobo Dioulasso,11.18,-4.29,854
Diapaga,Diapaga,12.077,1.796,854
Sebba,Sebba,13.4364,0.5304,854
Ouahigouya,Ouahigouya,13.5704,-2.42,854
Banfora,Banfora,10.6304,-4.76,854
Gaoua,Gaoua,10.2992,-3.2508,854
Manga,Manga,11.662,-1.065,854
Sapouy,Sapouy,11.5544,-1.7736,854
Kaya,Kaya,13.0904,-1.09,854
Orodara,Orodara,10.974,-4.908,854
Bogandé,Bogande,12.969,-0.138,854
Ziniaré,Ziniare,12.577,-1.293,854
Fada Ngourma,Fada Ngourma,12.055,0.361,854
Leo,Leo,11.094,-2.098,854
Diébougou,Diebougou,10.952,-3.248,854
Gaoua,Gaoua,10.325,-3.174,854
Dédougou,Dedougou,12.455,-3.464,854
Nouna,Nouna,12.729,-3.86,854
Koudougou,Koudougou,12.2505,-2.37,854
Réo,Reo,12.3335,-2.4669,854
Kombissiri,Kombissiri,12.064,-1.334,854
Yako,Yako,12.954,-2.263,854
Solenzo,Solenzo,12.1833,-4.0833,854
Djibo,Djibo,14.099,-1.627,854
Dori,Dori,14.034,-0.028,854
Gorom Gorom,Gorom Gorom,14.45,-0.2333,854
Zorgo,Zorgo,12.243,-0.611,854
Boulsa,Boulsa,12.657,-0.569,854
Koupéla,Koupela,12.177,-0.356,854
Tenkodogo,Tenkodogo,11.7804,-0.3697,854
Ouagadougou,Ouagadougou,12.3703,-1.5247,854
Varna,Varna,43.2156,27.8953,100
Yambol,Yambol,42.4833,26.5,100
Ruse,Ruse,43.8537,25.9733,100
Dobrich,Dobrich,43.5851,27.84,100
Pazardzhik,Pazardzhik,42.2,24.3333,100
Plovdiv,Plovdiv,42.154,24.754,100
Sliven,Sliven,42.6794,26.33,100
Shumen,Shumen,43.27,26.9294,100
Razgrad,Razgrad,43.534,26.536,100
Silistra,Silistra,44.1167,27.2667,100
Vidin,Vidin,43.99,22.8725,100
Burgas,Burgas,42.5146,27.4746,100
Montana,Montana,43.414,23.237,100
Gabrovo,Gabrovo,42.8747,25.3342,100
Kyustendil,Kyustendil,42.2843,22.6911,100
Vratsa,Vratsa,43.21,23.5625,100
Stara Zagora,Stara Zagora,42.4231,25.6227,100
Lovec,Lovec,43.138,24.719,100
Pernik,Pernik,42.61,23.0227,100
Pleven,Pleven,43.4238,24.6134,100
Sofia,Sofia,42.6833,23.3167,100
Khaskovo,Khaskovo,41.9438,25.5633,100
Kardzhali,Kardzhali,41.65,25.3667,100
Targovishte,Targovishte,43.2592,26.5892,100
Turnovo,Turnovo,43.0862,25.6555,100
Blagoevgrad,Blagoevgrad,42.0167,23.1,100
Smolyan,Smolyan,41.5853,24.6919,100
Manama,Manama,26.2361,50.5831,48
Kayanza,Kayanza,-2.9,29.5667,108
Bururi,Bururi,-3.9507,29.6166,108
Cibitoke,Cibitoke,-2.8869,29.1248,108
Ruyigi,Ruyigi,-3.481,30.244,108
Cankuzo,Cankuzo,-3.1667,30.5167,108
Makamba,Makamba,-4.1333,29.8,108
Gitega,Gitega,-3.4264,29.9308,108
Gitega,Gitega,-3.426,29.8436,108
Kirundo,Kirundo,-2.5847,30.0972,108
Muramvya,Muramvya,-3.261,29.612,108
Rumonge,Rumonge,-3.9736,29.4386,108
Bubanza,Bubanza,-3.0833,29.3667,108
Karusi,Karusi,-3.1,30.163,108
Ngozi,Ngozi,-2.912,29.825,108
Mwaro,Mwaro,-3.5113,29.7051,108
Isale,Isale,-3.3489,29.4839,108
Rutana,Rutana,-3.931,29.993,108
Bujumbura,Bujumbura,-3.3761,29.36,108
Muyinga,Muyinga,-2.8523,30.3173,108
Savalou,Savalou,7.9281,1.9756,204
Ouidah,Ouidah,6.3604,2.09,204
Kandi,Kandi,11.1304,2.94,204
Dogbo,Dogbo,6.8167,1.7833,204
Natitingou,Natitingou,10.3204,1.39,204
Abomey,Abomey,7.1904,1.99,204
Lokossa,Lokossa,6.615,1.715,204
Parakou,Parakou,9.34,2.62,204
Porto-Novo,Porto-Novo,6.4833,2.6166,204
Cotonou,Cotonou,6.4,2.52,204
Djougou,Djougou,9.7004,1.68,204
Sakété,Sakete,6.7362,2.6587,204
Hamilton,Hamilton,32.2942,-64.7839,60
Bandar Seri Begawan,Bandar Seri Begawan,4.8833,114.9333,96
Santa Cruz de la Sierra,Santa Cruz de la Sierra,-17.8,-63.1667,68
La Paz,La Paz,-16.498,-68.15,68
Sica Sica,Sica Sica,-17.33,-67.73,68
Uyuni,Uyuni,-20.46,-66.83,68
Coroico,Coroico,-16.1896,-67.72,68
Coro Coro,Coro Coro,-17.1696,-68.45,68
San Ignacio,San Ignacio,-16.3696,-60.96,68
San Matias,San Matias,-16.36,-58.42,68
Santa Ana,Santa Ana,-13.76,-65.58,68
Roboré,Robore,-18.3295,-59.76,68
Baures,Baures,-13.58,-63.5801,68
Ascension,Ascension,-15.6996,-63.08,68
Oruro,Oruro,-17.98,-67.13,68
Apolo,Apolo,-14.7196,-68.42,68
San Jose,San Jose,-17.85,-60.78,68
Viacha,Viacha,-16.65,-68.3,68
Puerto Suárez,Puerto Suarez,-18.9496,-57.85,68
Trinidad,Trinidad,-14.8334,-64.9,68
Potosí,Potosi,-19.5696,-65.75,68
San Carlos,San Carlos,-17.4,-63.73,68
Quime,Quime,-16.98,-67.22,68
Reyes,Reyes,-14.3096,-67.37,68
Rurrenabaque,Rurrenabaque,-14.46,-67.56,68
San Ramón,San Ramon,-13.2896,-64.71,68
Achacachi,Achacachi,-16.0833,-68.6666,68
San Rafael,San Rafael,-16.7795,-60.68,68
Magdalena,Magdalena,-13.2601,-64.0528,68
San Borja,San Borja,-14.8196,-66.85,68
Guayaramerín,Guayaramerin,-10.83,-65.41,68
Charaña,Charana,-17.5996,-69.4666,68
Cochabamba,Cochabamba,-17.41,-66.17,68
Santa Cruz,Santa Cruz,-17.7539,-63.226,68
Sucre,Sucre,-19.041,-65.2595,68
Tupiza,Tupiza,-21.4396,-65.72,68
San Lorenzo,San Lorenzo,-21.4799,-64.77,68
Camargo,Camargo,-20.6396,-65.21,68
Villamontes,Villamontes,-21.2496,-63.5,68
Cobija,Cobija,-11.0333,-68.7333,68
Tarabuco,Tarabuco,-19.18,-64.9199,68
Camiri,Camiri,-20.05,-63.52,68
Cuevo,Cuevo,-20.45,-63.53,68
Charagua,Charagua,-19.7996,-63.22,68
Padilla,Padilla,-19.2996,-64.31,68
Bermejo,Bermejo,-22.7296,-64.35,68
Entre Ríos,Entre Rios,-21.53,-64.19,68
Tarija,Tarija,-21.5167,-64.75,68
Villazón,Villazon,-22.0796,-65.6,68
Puerto Heath,Puerto Heath,-12.4996,-68.6666,68
Piso Firme,Piso Firme,-13.683,-61.8666,68
Betanzos,Betanzos,-19.56,-65.45,68
Sabaya,Sabaya,-19.0163,-68.3833,68
Vallegrande,Vallegrande,-18.4896,-64.11,68
Samaipata,Samaipata,-18.18,-63.77,68
Llica,Llica,-19.8496,-68.25,68
Aiquile,Aiquile,-18.1895,-65.18,68
Villa Martin,Villa Martin,-20.7666,-67.7833,68
San Javier,San Javier,-16.2896,-62.5,68
Riberalta,Riberalta,-10.983,-66.1,68
Llallagua,Llallagua,-18.42,-66.64,68
Uncia,Uncia,-18.47,-66.57,68
Challapata,Challapata,-18.8996,-66.78,68
Quillacollo,Quillacollo,-17.4,-66.28,68
Punata,Punata,-17.55,-65.84,68
Cliza,Cliza,-17.59,-65.93,68
Portachuelo,Portachuelo,-17.36,-63.4,68
Montero,Montero,-17.3496,-63.26,68
Puerto Villarroel,Puerto Villarroel,-16.87,-64.78,68
Puerto Acosta,Puerto Acosta,-15.4996,-69.1667,68
Sorata,Sorata,-15.79,-68.6601,68
Puerto Quijarro,Puerto Quijarro,-17.7796,-57.77,68
Tauá,Taua,-5.9995,-40.31,76
Quixadá,Quixada,-4.97,-39.02,76
Cabo de Santo Agostinho,Cabo de Santo Agostinho,-8.29,-35.03,76
São Gabriel,Sao Gabriel,-30.32,-54.32,76
São Borja,Sao Borja,-28.6596,-56.01,76
Santo Ângelo,Santo Angelo,-28.3,-54.28,76
Santa Rosa,Santa Rosa,-27.8695,-54.46,76
Quaraí,Quarai,-30.38,-56.4599,76
Salvador,Salvador,-12.97,-38.48,76
Vila Velha,Vila Velha,-20.3676,-40.318,76
Santa Cruz do Sul,Santa Cruz do Sul,-29.71,-52.44,76
Laguna,Laguna,-28.48,-48.78,76
Muriaé,Muriae,-21.13,-42.39,76
Londrina,Londrina,-23.3,-51.18,76
São Lourenço do Sul,Sao Lourenco do Sul,-31.37,-51.98,76
Porto União,Porto Uniao,-26.2396,-51.08,76
Itanhaem,Itanhaem,-24.18,-46.8,76
Foz do Iguaçu,Foz do Iguacu,-25.5235,-54.53,76
Novo Hamburgo,Novo Hamburgo,-29.7096,-51.14,76
Viana,Viana,-3.2096,-45,76
Fernandópolis,Fernandopolis,-20.2696,-50.26,76
Guarapuava,Guarapuava,-25.38,-51.48,76
Guajara-Miram,Guajara-Miram,-10.8,-65.3499,76
Arcoverde,Arcoverde,-8.42,-37.07,76
Mossoró,Mossoro,-5.19,-37.34,76
Maringá,Maringa,-23.4095,-51.93,76
Maracaju,Maracaju,-21.61,-55.18,76
Estância,Estancia,-11.2696,-37.45,76
Crateús,Crateus,-5.1656,-40.666,76
Ponta Porã,Ponta Pora,-22.53,-55.73,76
Penápolis,Penapolis,-21.41,-50.08,76
Cruzeiro do Sul,Cruzeiro do Sul,-7.63,-72.67,76
Jacareacanga,Jacareacanga,-6.2666,-57.65,76
Erechim,Erechim,-27.63,-52.27,76
Chapadinha,Chapadinha,-3.7395,-43.36,76
Itapipoca,Itapipoca,-3.4995,-39.58,76
Bacabal,Bacabal,-4.23,-44.8,76
Cascavel,Cascavel,-24.9596,-53.46,76
Curitiba,Curitiba,-25.42,-49.32,76
Aracati,Aracati,-4.56,-37.77,76
Uruguaiana,Uruguaiana,-29.7696,-57.09,76
Ijuí,Ijui,-28.3895,-53.9199,76
Apucarana,Apucarana,-23.55,-51.47,76
Formosa,Formosa,-15.5395,-47.34,76
Icó,Ico,-6.4,-38.85,76
Araranguá,Ararangua,-28.94,-49.5,76
Xapeco,Xapeco,-27.1,-52.64,76
Nova Iguaçu,Nova Iguacu,-22.74,-43.47,76
Andradina,Andradina,-20.9096,-51.3799,76
Capanema,Capanema,-1.19,-47.18,76
Baturité,Baturite,-4.3296,-38.88,76
Aripuana,Aripuana,-9.17,-60.64,76
Bom Jesus da Lapa,Bom Jesus da Lapa,-13.2495,-43.44,76
Carazinho,Carazinho,-28.29,-52.8,76
Cametá,Cameta,-2.2396,-49.51,76
Campo Murao,Campo Murao,-24.0496,-52.42,76
Aquidauana,Aquidauana,-20.4696,-55.79,76
Brasília,Brasilia,-15.7833,-47.9161,76
Bragança Paulista,Braganca Paulista,-22.95,-46.55,76
Assis,Assis,-22.6596,-50.42,76
Paragominas,Paragominas,-2.9596,-47.49,76
Cáceres,Caceres,-16.05,-57.51,76
Bento Gonçalves,Bento Goncalves,-29.1695,-51.52,76
Santo André,Santo Andre,-23.6528,-46.5278,76
Bagé,Bage,-31.32,-54.1,76
Três Lagoas,Tres Lagoas,-20.79,-51.72,76
Caracaraí,Caracarai,1.8162,-61.1277,76
Concórdia,Concordia,-27.23,-52.03,76
Camaquã,Camaqua,-30.8396,-51.81,76
Guaira,Guaira,-24.09,-54.27,76
Jaraguá do Sul,Jaragua do Sul,-26.48,-49.1,76
Araçatuba,Aracatuba,-21.21,-50.45,76
Olinda,Olinda,-8,-34.85,76
Recife,Recife,-8.0756,-34.9156,76
Natal,Natal,-6.9838,-60.2699,76
Presidente Prudente,Presidente Prudente,-22.12,-51.39,76
Parnaíba,Parnaiba,-2.91,-41.77,76
Crato,Crato,-7.4639,-63.04,76
Santana do Livramento,Santana do Livramento,-30.88,-55.53,76
Corumbá,Corumba,-19.016,-57.65,76
Jaboatao,Jaboatao,-8.11,-35.02,76
Campo Grande,Campo Grande,-20.45,-54.6166,76
Itaituba,Itaituba,-4.2586,-55.925,76
Joaçaba,Joacaba,-27.17,-51.5,76
Rio Branco,Rio Branco,-9.9666,-67.8,76
Acaraú,Acarau,-2.8896,-40.12,76
Pelotas,Pelotas,-31.75,-52.33,76
Manaus,Manaus,-3.1,-60,76
Cachoeira do Sul,Cachoeira do Sul,-30.03,-52.91,76
Jardim,Jardim,-21.4799,-56.15,76
Santa Maria,Santa Maria,-29.6833,-53.8,76
Rosário do Sul,Rosario do Sul,-30.25,-54.92,76
Joinville,Joinville,-26.32,-48.8399,76
Ji-Paraná,Ji-Parana,-10.8333,-61.967,76
Arapongas,Arapongas,-23.41,-51.43,76
Dourados,Dourados,-22.23,-54.81,76
Caçador,Cacador,-26.77,-51.02,76
Jaguarão,Jaguarao,-32.56,-53.37,76
Passo Fundo,Passo Fundo,-28.25,-52.42,76
Santa Vitória do Palmar,Santa Vitoria do Palmar,-33.52,-53.37,76
Porto Alegre,Porto Alegre,-30.05,-51.2,76
Açu,Acu,-5.5796,-36.9101,76
Rio Grande,Rio Grande,-32.0495,-52.12,76
Sena Madureira,Sena Madureira,-9.07,-68.67,76
São Luiz Gonzaga,Sao Luiz Gonzaga,-28.41,-54.96,76
Tupã,Tupa,-21.93,-50.52,76
Ponta Grossa,Ponta Grossa,-25.09,-50.16,76
Palmas,Palmas,-26.48,-52,76
Grajau,Grajau,-5.81,-46.15,76
São Francisco do Sul,Sao Francisco do Sul,-26.2396,-48.6,76
Caxias do Sul,Caxias do Sul,-29.18,-51.17,76
Sorocaba,Sorocaba,-23.49,-47.47,76
Rio Negro,Rio Negro,-26.1,-49.79,76
Capitão Poço,Capitao Poco,-1.7496,-47.09,76
Canoas,Canoas,-29.92,-51.18,76
Granja,Granja,-3.1195,-40.84,76
Sobral,Sobral,-3.69,-40.35,76
Camocim,Camocim,-2.9,-40.85,76
Almenara,Almenara,-16.17,-40.7,76
Araçuaí,Aracuai,-16.8596,-42.0699,76
Teófilo Otoni,Teofilo Otoni,-17.87,-41.5,76
Floriano,Floriano,-6.7696,-43.03,76
Colinas,Colinas,-6.0395,-44.24,76
Caxias,Caxias,-4.833,-43.35,76
Pedreiras,Pedreiras,-4.5696,-44.67,76
Barra do Corda,Barra do Corda,-5.5096,-45.26,76
Jacarezinho,Jacarezinho,-23.1599,-49.98,76
Presidente Dutra,Presidente Dutra,-5.25,-44.52,76
Coroatá,Coroata,-4.1296,-44.15,76
Codó,Codo,-4.4796,-43.88,76
Paulo Afonso,Paulo Afonso,-9.3307,-38.2657,76
Palmeira dos Índios,Palmeira dos Indios,-9.4166,-36.6166,76
Cuiabá,Cuiaba,-15.5696,-56.085,76
Tubarão,Tubarao,-28.48,-49.02,76
Vacaria,Vacaria,-28.4996,-50.94,76
Criciúma,Criciuma,-28.68,-49.39,76
Campo Belo,Campo Belo,-20.8896,-45.28,76
Salinópolis,Salinopolis,-0.6095,-47.34,76
Guaxupé,Guaxupe,-21.29,-46.71,76
Sete Lagoas,Sete Lagoas,-19.4496,-44.25,76
Itaúna,Itauna,-20.06,-44.57,76
Novo Airão,Novo Airao,-2.6208,-60.9438,76
Tucuruí,Tucurui,-3.68,-49.72,76
Várzea Grande,Varzea Grande,-15.65,-56.14,76
Formiga,Formiga,-20.46,-45.43,76
Santa Inês,Santa Ines,-3.66,-45.39,76
Divinópolis,Divinopolis,-20.1495,-44.9,76
Pirapora,Pirapora,-17.33,-44.93,76
Lavras,Lavras,-21.2496,-45.01,76
Óbidos,Obidos,-1.91,-55.52,76
Curvelo,Curvelo,-18.7596,-44.43,76
Conceição do Araguaia,Conceicao do Araguaia,-8.25,-49.29,76
Oriximiná,Oriximina,-1.7596,-55.87,76
Paracatu,Paracatu,-17.1996,-46.87,76
Itaberaí,Itaberai,-16.02,-49.81,76
Uberlândia,Uberlandia,-18.9,-48.28,76
Araxá,Araxa,-19.5796,-46.95,76
Iguatu,Iguatu,-6.36,-39.3,76
Itumbiara,Itumbiara,-18.3996,-49.21,76
Lapa,Lapa,-25.76,-49.73,76
Cristalina,Cristalina,-16.77,-47.61,76
Trindade,Trindade,-16.65,-49.5,76
Inhumas,Inhumas,-16.36,-49.5,76
Goiânia,Goiania,-16.72,-49.3,76
Castro,Castro,-24.79,-50.01,76
Ituiutaba,Ituiutaba,-18.97,-49.46,76
Uberaba,Uberaba,-19.78,-47.95,76
Araguari,Araguari,-18.64,-48.2,76
Anápolis,Anapolis,-16.3196,-48.96,76
Poços de Caldas,Pocos de Caldas,-21.78,-46.57,76
São João del Rei,Sao Joao del Rei,-21.13,-44.25,76
Pires do Rio,Pires do Rio,-17.2995,-48.28,76
Aracaju,Aracaju,-10.9,-37.12,76
Manicoré,Manicore,-5.8122,-61.2975,76
Pouso Alegre,Pouso Alegre,-22.22,-45.94,76
Ariquemes,Ariquemes,-9.9396,-63.08,76
Morrinhos,Morrinhos,-17.73,-49.11,76
Americana,Americana,-22.7499,-47.33,76
Avaré,Avare,-23.11,-48.93,76
Barretos,Barretos,-20.55,-48.58,76
Batatais,Batatais,-20.89,-47.59,76
Bauru,Bauru,-22.33,-49.08,76
Botucatu,Botucatu,-22.8796,-48.45,76
Catalão,Catalao,-18.18,-47.95,76
Irati,Irati,-25.47,-50.66,76
Santa Cruz,Santa Cruz,-6.22,-36.03,76
Tucano,Tucano,-10.9696,-38.79,76
Timbaúba,Timbauba,-7.4996,-35.32,76
Passos,Passos,-20.71,-46.61,76
Manacapuru,Manacapuru,-3.2896,-60.62,76
Barreiros,Barreiros,-8.8296,-35.2,76
Pimenta Bueno,Pimenta Bueno,-11.64,-61.21,76
Vilhena,Vilhena,-12.7166,-60.1166,76
Pinheiro,Pinheiro,-2.5196,-45.09,76
Belo Horizonte,Belo Horizonte,-19.915,-43.915,76
Carpina,Carpina,-7.84,-35.26,76
Serrinha,Serrinha,-11.6496,-39.01,76
Arapiraca,Arapiraca,-9.75,-36.67,76
Paracuru,Paracuru,-3.3995,-39.04,76
Telêmaco Borba,Telemaco Borba,-24.33,-50.62,76
Penedo,Penedo,-10.2696,-36.58,76
Xique-Xique,Xique-Xique,-10.82,-42.73,76
Barra Mansa,Barra Mansa,-22.56,-44.17,76
Alagoinhas,Alagoinhas,-12.14,-38.43,76
Remanso,Remanso,-9.5996,-42.11,76
Maceió,Maceio,-9.62,-35.73,76
Frutal,Frutal,-20.03,-48.94,76
Irecê,Irece,-11.3,-41.87,76
Pontes e Lacerda,Pontes e Lacerda,-15.2196,-59.35,76
Volta Redonda,Volta Redonda,-22.5196,-44.095,76
Senhor do Bonfim,Senhor do Bonfim,-10.4496,-40.19,76
Garanhuns,Garanhuns,-8.89,-36.5,76
Rio Largo,Rio Largo,-9.48,-35.84,76
Canindé,Caninde,-4.35,-39.31,76
Feira de Santana,Feira de Santana,-12.25,-38.97,76
Paranaguá,Paranagua,-25.5279,-48.5345,76
Mineiros,Mineiros,-17.5695,-52.56,76
Crato,Crato,-7.2296,-39.42,76
Juazeiro do Norte,Juazeiro do Norte,-7.21,-39.32,76
Jataí,Jatai,-17.8796,-51.75,76
Canavieiras,Canavieiras,-15.64,-38.96,76
Rondonópolis,Rondonopolis,-16.4695,-54.64,76
Paranaíba,Paranaiba,-19.6796,-51.2,76
São José dos Pinhais,Sao Jose dos Pinhais,-25.57,-49.18,76
Rio Verde,Rio Verde,-17.8196,-50.93,76
Natal,Natal,-5.78,-35.24,76
João Pessoa,Joao Pessoa,-7.1011,-34.8761,76
Goiana,Goiana,-7.5596,-35,76
Apodi,Apodi,-5.65,-37.8,76
Mato Grosso,Mato Grosso,-15,-59.95,76
Itambé,Itambe,-15.2396,-40.63,76
Vitória da Conquista,Vitoria da Conquista,-14.85,-40.84,76
Barreiras,Barreiras,-12.14,-45,76
Januária,Januaria,-15.48,-44.37,76
Ubaitaba,Ubaitaba,-14.3,-39.33,76
Jaguaquara,Jaguaquara,-13.53,-39.97,76
Jequié,Jequie,-13.85,-40.08,76
Janaúba,Janauba,-15.7996,-43.31,76
Santa Maria da Vitória,Santa Maria da Vitoria,-13.39,-44.21,76
Guanambi,Guanambi,-14.2296,-42.79,76
Registro,Registro,-24.49,-47.84,76
Iguape,Iguape,-24.72,-47.5699,76
Ilhéus,Ilheus,-14.78,-39.05,76
Itabuna,Itabuna,-14.7896,-39.28,76
Iporá,Ipora,-16.45,-51.13,76
Iturama,Iturama,-19.73,-50.2,76
Caicó,Caico,-6.4596,-37.1,76
Valença,Valenca,-13.3596,-39.08,76
Caruaru,Caruaru,-8.28,-35.98,76
Campina Grande,Campina Grande,-7.23,-35.88,76
Nova Cruz,Nova Cruz,-6.4696,-35.44,76
Fortaleza,Fortaleza,-3.75,-38.58,76
Itapetinga,Itapetinga,-15.25,-40.25,76
Russas,Russas,-4.94,-37.98,76
Patos,Patos,-7.0196,-37.29,76
Pindamonhangaba,Pindamonhangaba,-22.92,-45.47,76
Ipú,Ipu,-4.3196,-40.7201,76
Itapeva,Itapeva,-23.9796,-48.88,76
Itapetininga,Itapetininga,-23.59,-48.04,76
Itu,Itu,-23.26,-47.3,76
Campo Maior,Campo Maior,-4.82,-42.18,76
Picos,Picos,-7.08,-41.44,76
Piripiri,Piripiri,-4.2696,-41.79,76
Campinas,Campinas,-22.9,-47.1,76
Catanduva,Catanduva,-21.14,-48.98,76
Piracicaba,Piracicaba,-22.71,-47.64,76
Pirassununga,Pirassununga,-21.99,-47.43,76
Timon,Timon,-5.115,-42.845,76
Teresina,Teresina,-5.095,-42.78,76
Canela,Canela,-29.36,-50.81,76
Barra do Bugres,Barra do Bugres,-15.0696,-57.19,76
Governador Valadares,Governador Valadares,-18.87,-41.97,76
Guanhães,Guanhaes,-18.78,-42.95,76
Salgueiro,Salgueiro,-8.0596,-39.13,76
Linhares,Linhares,-19.39,-40.05,76
Blumenau,Blumenau,-26.92,-49.09,76
Santa Cruz Cabrália,Santa Cruz Cabralia,-16.28,-39.03,76
São José de Ribamar,Sao Jose de Ribamar,-2.55,-44.07,76
São Mateus,Sao Mateus,-18.7296,-39.86,76
São Luís,Sao Luis,-2.516,-44.266,76
Rosário,Rosario,-2.94,-44.26,76
Porto Seguro,Porto Seguro,-16.4296,-39.08,76
Nanuque,Nanuque,-17.84,-40.35,76
Alvorada,Alvorada,-12.47,-49.082,76
Ipatinga,Ipatinga,-19.4796,-42.52,76
Nova Lima,Nova Lima,-19.98,-43.85,76
Diamantina,Diamantina,-18.24,-43.61,76
Itapecuru Mirim,Itapecuru Mirim,-3.4,-44.36,76
Bocaiúva,Bocaiuva,-17.1096,-43.81,76
Nova Viçosa,Nova Vicosa,-17.88,-39.37,76
Itamaraju,Itamaraju,-17.0396,-39.5299,76
Montes Claros,Montes Claros,-16.72,-43.86,76
Caratinga,Caratinga,-19.79,-42.14,76
Ubá,Uba,-21.1196,-42.95,76
Alta Floresta,Alta Floresta,-9.9,-55.91,76
Ponte Nova,Ponte Nova,-20.4096,-42.9,76
Castanhal,Castanhal,-1.2896,-47.93,76
Conselheiro Lafaiete,Conselheiro Lafaiete,-20.67,-43.79,76
Juiz de Fora,Juiz de Fora,-21.77,-43.375,76
Leopoldina,Leopoldina,-21.53,-42.64,76
Cachoeiro de Itapemirim,Cachoeiro de Itapemirim,-20.85,-41.13,76
Barbacena,Barbacena,-21.22,-43.77,76
Brusque,Brusque,-27.13,-48.93,76
Florianópolis,Florianopolis,-27.58,-48.52,76
Porto Nacional,Porto Nacional,-10.7,-48.4199,76
Principe da Beira,Principe da Beira,-12.4167,-64.4166,76
Itajaí,Itajai,-26.8996,-48.68,76
Belém,Belem,-1.45,-48.48,76
Palmas,Palmas,-10.2377,-48.2878,76
Xinguara,Xinguara,-7.1006,-49.948,76
Bragança,Braganca,-1.05,-46.77,76
Vitória,Vitoria,-20.324,-40.366,76
Parintins,Parintins,-2.61,-56.74,76
Viseu,Viseu,-1.1965,-46.14,76
Colíder,Colider,-10.8173,-55.4506,76
Sinop,Sinop,-11.85,-55.46,76
Cabo Frio,Cabo Frio,-22.89,-42.04,76
Campos,Campos,-21.75,-41.32,76
Petrolina,Petrolina,-9.38,-40.51,76
Juazeiro,Juazeiro,-9.42,-40.5,76
Brumado,Brumado,-14.21,-41.67,76
Osório,Osorio,-29.88,-50.27,76
Petrópolis,Petropolis,-22.5095,-43.2,76
Rio de Janeiro,Rio de Janeiro,-22.925,-43.225,76
Breves,Breves,-1.68,-50.49,76
Nova Friburgo,Nova Friburgo,-22.26,-42.54,76
Jaboticabal,Jaboticabal,-21.25,-48.33,76
Lajes,Lajes,-27.8096,-50.31,76
Araguaína,Araguaina,-7.19,-48.21,76
Marabá,Maraba,-5.35,-49.116,76
Itupiranga,Itupiranga,-5.12,-49.3,76
Barras,Barras,-4.25,-42.3,76
Rolim de Moura,Rolim de Moura,-11.7302,-61.7806,76
São José dos Campos,Sao Jose dos Campos,-23.2,-45.8799,76
Gurupi,Gurupi,-11.7196,-49.06,76
Itaberaba,Itaberaba,-12.5196,-40.3,76
Macaé,Macae,-22.38,-41.79,76
Miracema,Miracema,-21.41,-42.2,76
Niterói,Niteroi,-22.9,-43.1,76
Marília,Marilia,-22.21,-49.95,76
Franca,Franca,-20.53,-47.39,76
Maués,Maues,-3.3896,-57.72,76
São Carlos,Sao Carlos,-22.02,-47.89,76
Guaratinguetá,Guaratingueta,-22.82,-45.19,76
Santarém,Santarem,-2.4333,-54.7,76
Garça,Garca,-22.22,-49.66,76
Ourinhos,Ourinhos,-22.97,-49.87,76
Jaú,Jau,-22.2896,-48.57,76
Tatuí,Tatui,-23.35,-47.86,76
Taubaté,Taubate,-23.0195,-45.56,76
Rio Claro,Rio Claro,-22.41,-47.56,76
Santos,Santos,-23.9537,-46.3329,76
São João da Boa Vista,Sao Joao da Boa Vista,-21.98,-46.79,76
Barra do Garças,Barra do Garcas,-15.8796,-52.26,76
São José do Rio Preto,Sao Jose do Rio Preto,-20.7996,-49.39,76
Jundiaí,Jundiai,-23.2,-46.88,76
Coari,Coari,-4.08,-63.13,76
Ribeirão Preto,Ribeirao Preto,-21.17,-47.83,76
Limeira,Limeira,-22.5495,-47.4,76
Novo Horizonte,Novo Horizonte,-21.4596,-49.22,76
Abaetetuba,Abaetetuba,-1.7245,-48.8849,76
Tocantinópolis,Tocantinopolis,-6.3196,-47.42,76
Amapá,Amapa,2.05,-50.8,76
Vila Velha,Vila Velha,3.2167,-51.2167,76
São Gabriel da Cachoeira,Sao Cabriel da Cachoeira,-0.1332,-67.0833,76
Tefé,Tefe,-3.36,-64.7,76
Fonte Boa,Fonte Boa,-2.5138,-66.0916,76
Imperatriz,Imperatriz,-5.52,-47.49,76
Niquelândia,Niquelandia,-14.4696,-48.47,76
Goianésia,Goianesia,-15.3096,-49.13,76
Ceres,Ceres,-15.3033,-49.6052,76
Portel,Portel,-1.95,-50.82,76
Canoinhas,Canoinhas,-26.18,-50.4,76
Altamira,Altamira,-3.1996,-52.21,76
Boa Vista,Boa Vista,2.8161,-60.666,76
São Paulo,Sao Paulo,-23.5587,-46.625,76
Macapá,Macapa,0.033,-51.05,76
Itacoatiara,Itacoatiara,-3.14,-58.44,76
Alenquer,Alenquer,-1.9396,-54.79,76
Porto Santana,Porto Santana,-0.0396,-51.18,76
Barcelos,Barcelos,-0.975,-62.9239,76
Tonantins,Tonantins,-2.8727,-67.8019,76
Imbituba,Imbituba,-28.2296,-48.66,76
Balsas,Balsas,-7.52,-46.05,76
Eirunepé,Eirunepe,-6.66,-69.8738,76
Porto Velho,Porto Velho,-8.75,-63.9,76
Abunã,Abuna,-9.6954,-65.3597,76
Nassau,Nassau,25.0834,-77.35,44
Freeport,Freeport,26.5333,-78.7,44
Mongar,Mongar,27.2747,91.2396,64
Pemagatshel,Pemagatshel,27.038,91.4031,64
Samdrup Jongkhar,Samdrup Jongkhar,26.8007,91.5052,64
Thimphu,Thimphu,27.473,89.639,64
Trashigang,Trashigang,27.3331,91.5542,64
Lhuentse,Lhuentse,27.6679,91.1839,64
Trashi Yangtse,Trashi Yangtse,27.6116,91.498,64
Wangdue Prodrang,Wangdue Prodrang,27.4333,89.9167,64
Punakha,Punakha,27.6333,89.8333,64
Haa,Haa,27.3685,89.2918,64
Trongsa,Trongsa,27.5026,90.5072,64
Zhemgang,Zhemgang,27.2169,90.6579,64
Jakar,Jakar,27.5492,90.7525,64
Sarpang,Sarpang,26.8639,90.2674,64
Tsirang,Tsirang,27.0219,90.1229,64
Gasa,Gasa,27.9067,89.7304,64
Samtse,Samtse,26.899,89.0995,64
Daga,Daga,27.0753,89.8769,64
Tsimasham,Tsimasham,27.0989,89.536,64
Paro,Paro,27.3833,89.5167,64
Mohembo,Mohembo,-18.2996,21.8,72
Ghanzi,Ghanzi,-21.6996,21.64,72
Lokhwabe,Lokhwabe,-24.1696,21.83,72
Lehututu,Lehututu,-23.9696,21.87,72
Tshabong,Tshabong,-26.0095,22.4,72
Nokaneng,Nokaneng,-19.6696,22.27,72
Mochudi,Mochudi,-24.377,26.152,72
Nata,Nata,-20.2095,26.19,72
Maun,Maun,-19.9896,23.42,72
Tsau,Tsau,-20.1596,22.46,72
Kanye,Kanye,-24.9696,25.34,72
Mahalapye,Mahalapye,-23.1,26.82,72
Palapye,Palapye,-22.5596,27.13,72
Molepolole,Molepolole,-24.4,25.51,72
Mopipi,Mopipi,-21.1795,24.88,72
Kasane,Kasane,-17.8096,25.15,72
Sowa Town,Sowa Town,-20.5636,26.2244,72
Ramotswa,Ramotswa,-24.8716,25.8699,72
Masunga,Masunga,-20.6245,27.4488,72
Gaborone,Gaborone,-24.6463,25.9119,72
Jwaneng,Jwaneng,-24.6017,24.7281,72
Lobatse,Lobatse,-25.2196,25.68,72
Serowe,Serowe,-22.39,26.71,72
Francistown,Francistown,-21.17,27.5,72
Selibe Phikwe,Selibe Phikwe,-21.9758,27.8347,72
Minsk,Minsk,53.9,27.5666,112
Brest,Brest,52.1,23.7,112
Lida,Lida,53.8885,25.2846,112
Mazyr,Mazyr,52.046,29.2722,112
Hrodna,Hrodna,53.6779,23.8341,112
Pinsk,Pinsk,52.1279,26.0941,112
Baranavichy,Baranavichy,53.1368,26.0134,112
Barysaw,Barysaw,54.226,28.4922,112
Polatsk,Polatsk,55.4894,28.786,112
Orsha,Orsha,54.5153,30.4215,112
Maladzyechna,Maladzyechna,54.3188,26.8653,112
Homyel,Homyel,52.43,31,112
Mahilyow,Mahilyow,53.8985,30.3247,112
Vitsyebsk,Vitsyebsk,55.1887,30.1853,112
Babruysk,Babruysk,53.1266,29.1928,112
Corozal,Corozal,18.398,-88.388,84
Belize City,Belize City,17.4987,-88.1884,84
Dangriga,Dangriga,16.97,-88.22,84
Orange Walk,Orange Walk,18.0904,-88.56,84
Punta Gorda,Punta Gorda,16.1003,-88.81,84
El Cayo,El Cayo,17.156,-89.061,84
Belmopan,Belmopan,17.252,-88.7671,84
Selkirk,Selkirk,50.15,-96.8833,124
Trepassey,Trepassey,46.737,-53.3633,124
Whitehorse,Whitehorse,60.7167,-135.05,124
Trout River,Trout River,49.4837,-58.1166,124
Yorkton,Yorkton,51.2171,-102.4665,124
Schefferville,Schefferville,54.8,-66.8167,124
Gander,Gander,48.95,-54.55,124
Berens River,Berens River,52.3666,-97.0333,124
Port-Menier,Port-Menier,49.8226,-64.348,124
Wetaskiwin,Wetaskiwin,52.9666,-113.3833,124
Shamattawa,Shamattawa,55.8504,-92.0833,124
Steinbach,Steinbach,49.5171,-96.6833,124
Thunder Bay,Thunder Bay,48.4462,-89.275,124
Oshawa,Oshawa,43.88,-78.85,124
Chicoutimi,Chicoutimi,48.4333,-71.0667,124
Melville,Melville,50.9333,-102.8,124
Brooks,Brooks,50.5671,-111.9,124
Dauphin,Dauphin,51.15,-100.05,124
Antigonish,Antigonish,45.6269,-61.9982,124
Terrace,Terrace,54.5,-128.5833,124
Lutselke,Lutselke,62.4001,-110.7333,124
Resolute,Resolute,74.6833,-94.9,124
Quesnel,Quesnel,52.9837,-122.4833,124
Island Lake,Island Lake,53.9666,-94.7666,124
Halifax,Halifax,44.65,-63.6,124
Watson Lake,Watson Lake,60.1166,-128.8,124
Sydney,Sydney,46.0661,-60.18,124
Dawson Creek,Dawson Creek,55.767,-120.2333,124
Uranium City,Uranium City,59.5666,-108.6166,124
Timmins,Timmins,48.4666,-81.3333,124
Saskatoon,Saskatoon,52.17,-106.67,124
Smithers,Smithers,54.7666,-127.1666,124
Alert,Alert,82.4833,-62.25,124
Thessalon,Thessalon,46.25,-83.55,124
Yellowknife,Yellowknife,62.442,-114.397,124
Camrose,Camrose,53.0167,-112.8166,124
Campbell River,Campbell River,50.0171,-125.25,124
Revelstoke,Revelstoke,51.0005,-118.1833,124
Meadow Lake,Meadow Lake,54.1301,-108.4347,124
Atikokan,Atikokan,48.7504,-91.6166,124
Creston,Creston,49.1,-116.5167,124
Gillam,Gillam,56.35,-94.7,124
Cranbrook,Cranbrook,49.5167,-115.7667,124
Little Current,Little Current,45.967,-81.9333,124
Calgary,Calgary,51.083,-114.08,124
Big Beaver House,Big Beaver House,52.95,-89.8833,124
Parry Sound,Parry Sound,45.3337,-80.033,124
Kamloops,Kamloops,50.6667,-120.3333,124
Dolbeau,Dolbeau,48.8666,-72.2333,124
St. John's,St. John's,47.585,-52.681,124
Lansdowne House,Lansdowne House,52.2166,-87.8833,124
Paulatuk,Paulatuk,69.3833,-123.9833,124
Attawapiskat,Attawapiskat,52.9166,-82.4333,124
Rimouski,Rimouski,48.4337,-68.5167,124
Grand Prairie,Grand Prairie,55.1666,-118.8,124
La Sarre,La Sarre,48.8,-79.2,124
Mingan,Mingan,50.3018,-64.0173,124
Prince Albert,Prince Albert,53.2,-105.75,124
Moose Jaw,Moose Jaw,50.4,-105.55,124
Powell River,Powell River,49.8837,-124.55,124
Pangnirtung,Pangnirtung,66.1333,-65.75,124
Nelson,Nelson,49.4837,-117.2833,124
Peace River,Peace River,56.2333,-117.2833,124
Cobalt,Cobalt,47.3837,-79.6833,124
New Glasgow,New Glasgow,45.5833,-62.6333,124
Arctic Bay,Arctic Bay,73.0333,-85.1666,124
Burwash Landing,Burwash Landing,61.3504,-139,124
Saint-Georges,Saint-Georges,46.1171,-70.6667,124
Vancouver,Vancouver,49.2734,-123.1216,124
Medicine Hat,Medicine Hat,50.0333,-110.6833,124
Port Hope Simpson,Port Hope Simpson,52.5333,-56.3,124
Iqaluit,Iqaluit,63.7505,-68.5002,124
Vegreville,Vegreville,53.5,-112.05,124
Bella Bella,Bella Bella,52.1484,-128.1173,124
Rankin Inlet,Rankin Inlet,62.8167,-92.0953,124
Owen Sound,Owen Sound,44.5666,-80.85,124
Lac La Biche,Lac La Biche,54.7719,-111.9647,124
Hopedale,Hopedale,55.45,-60.2167,124
Norway House,Norway House,53.9666,-97.8333,124
Coral Harbour,Coral Harbour,64.1538,-83.1766,124
Kugluktuk,Kugluktuk,67.7987,-115.1254,124
Norman Wells,Norman Wells,65.2837,-126.85,124
Fort Resolution,Fort Resolution,61.1666,-113.683,124
Fort McPherson,Fort McPherson,67.4915,-134.895,124
Forteau,Forteau,51.4504,-56.95,124
Kuujjuaq,Kuujjuaq,58.1,-68.4,124
Cape Dorset,Cape Dorset,64.3125,-76.5386,124
Cartwright,Cartwright,53.7014,-57.0121,124
Flin Flon,Flin Flon,54.7666,-101.8833,124
Holman,Holman,70.7334,-117.75,124
Pembroke,Pembroke,45.8503,-77.1166,124
Baker Lake,Baker Lake,64.317,-96.0167,124
Moosonee,Moosonee,51.2806,-80.658,124
Dryden,Dryden,49.7833,-92.8333,124
Corner Brook,Corner Brook,48.95,-57.9333,124
Kelowna,Kelowna,49.9,-119.4833,124
Fort Smith,Fort Smith,60,-111.8833,124
Fort Severn,Fort Severn,55.9833,-87.65,124
Mont-Laurier,Mont-Laurier,46.5504,-75.5,124
Channel-Port aux Basques,Channel-Port aux Basques,47.567,-59.15,124
Kindersley,Kindersley,51.467,-109.1333,124
Igloolik,Igloolik,69.2565,-81.7936,124
Hudson Bay,Hudson Bay,52.8504,-102.3833,124
Courtenay,Courtenay,49.6833,-125,124
Mistassini,Mistassini,50.4171,-73.8666,124
Kingston,Kingston,44.2337,-76.4833,124
Eastmain,Eastmain,52.2333,-78.5167,124
Baie-Comeau,Baie-Comeau,49.2227,-68.158,124
North Bay,North Bay,46.3,-79.45,124
North Battleford,North Battleford,52.7666,-108.2833,124
Grise Fiord,Grise Fiord,76.4417,-82.95,124
Deer Lake,Deer Lake,49.1744,-57.4269,124
Stony Rapids,Stony Rapids,59.2666,-105.8333,124
Hinton,Hinton,53.4,-117.5834,124
Toronto,Toronto,43.7,-79.42,124
Edmonton,Edmonton,53.55,-113.5,124
Gjoa Haven,Gjoa Haven,68.6333,-95.9167,124
Fort Simpson,Fort Simpson,61.85,-121.3333,124
Naujaat,Repulse Bay,66.5295,-86.2829,124
Lethbridge,Lethbridge,49.7005,-112.8333,124
Sudbury,Sudbury,46.5,-80.9666,124
Swift Current,Swift Current,50.2837,-107.7666,124
Regina,Regina,50.45,-104.617,124
Cornwall,Cornwall,45.0171,-74.7333,124
Taloyoak,Taloyoak,69.5333,-93.5333,124
Tuktoyaktuk,Tuktoyaktuk,69.4548,-133.0492,124
Deer Lake,Deer Lake,52.617,-94.0666,124
London,London,42.97,-81.25,124
Natashquan,Natashquan,50.1913,-61.8107,124
Cap-Chat,Cap-Chat,49.1,-66.6833,124
Orillia,Orillia,44.6,-79.4167,124
Kenora,Kenora,49.7667,-94.4666,124
Barrie,Barrie,44.3838,-79.7,124
Sherbrooke,Sherbrooke,45.4,-71.9,124
St. Anthony,St. Anthony,51.3837,-55.6,124
Rigolet,Rigolet,54.1766,-58.4473,124
Fort Good Hope,Fort Good Hope,66.2666,-128.6333,124
La Scie,La Scie,49.967,-55.583,124
Fort St. John,Fort St. John,56.25,-120.8333,124
Marathon,Marathon,48.7504,-86.3667,124
Gaspé,Gaspe,48.8373,-64.4934,124
Nelson House,Nelson House,55.8005,-98.85,124
Lillooet,Lillooet,50.6837,-121.9333,124
Fort McMurray,Fort McMurray,56.7333,-111.3833,124
Jasper,Jasper,52.8833,-118.0834,124
Buchans,Buchans,48.817,-56.8666,124
Stettler,Stettler,52.333,-112.6833,124
La Ronge,La Ronge,55.1,-105.3,124
Brochet,Brochet,57.8832,-101.6666,124
Baddeck,Baddeck,46.1,-60.754,124
Pond Inlet,Pond Inlet,72.685,-78.0001,124
St-Augustin,St-Augustin,51.2423,-58.647,124
Gimli,Gimli,50.6333,-97,124
Red Lake,Red Lake,51.0337,-93.8333,124
Stephenville,Stephenville,48.5504,-58.5666,124
Ennadai,Ennadai,61.1333,-100.8833,124
Happy Valley - Goose Bay,Happy Valley - Goose Bay,53.3,-60.3,124
Williams Lake,Williams Lake,52.1166,-122.15,124
Prince Rupert,Prince Rupert,54.3167,-130.33,124
Chilliwack,Chilliwack,49.1666,-121.95,124
Radisson,Radisson,53.7836,-77.6166,124
Churchill,Churchill,58.766,-94.166,124
Port Hardy,Port Hardy,50.7171,-127.5,124
Penticton,Penticton,49.5004,-119.5833,124
Drummondville,Drummondville,45.8833,-72.4834,124
Brandon,Brandon,49.8333,-99.95,124
Argentia,Argentia,47.3004,-53.99,124
Kimmirut,Kimmirut,62.85,-69.8833,124
Wiarton,Wiarton,44.7337,-81.1333,124
Ottawa,Ottawa,45.4167,-75.7,124
Fort Chipewyan,Fort Chipewyan,58.7171,-111.15,124
Fort Nelson,Fort Nelson,58.8167,-122.533,124
Lynn Lake,Lynn Lake,56.85,-101.05,124
Weyburn,Weyburn,49.6666,-103.85,124
Burns Lake,Burns Lake,54.217,-125.7666,124
Nain,Nain,56.5474,-61.686,124
Prince George,Prince George,53.9167,-122.7667,124
Cochrane,Cochrane,49.067,-81.0166,124
Nipigon,Nipigon,49.017,-88.25,124
Rivière-du-Loup,Riviere-du-Loup,47.8333,-69.5333,124
St.-Jerome,St.-Jerome,45.7666,-74,124
Geraldton,Geraldton,49.7166,-86.9666,124
New Liskeard,New Liskeard,47.5,-79.6666,124
Cat Lake,Cat Lake,51.717,-91.8,124
Tofino,Tofino,49.1521,-125.9031,124
Tsiigehtchic,Tsiigehtchic,67.4333,-133.75,124
Thompson,Thompson,55.7499,-97.8666,124
Abbotsford,Abbotsford,49.0504,-122.3,124
Trois-Rivières,Trois Rivieres,46.35,-72.5499,124
Peterborough,Peterborough,44.3,-78.3333,124
Amos,Amos,48.5666,-78.1167,124
Chapleau,Chapleau,47.8337,-83.4,124
Athabasca,Athabasca,54.717,-113.2666,124
Red Deer,Red Deer,52.2666,-113.8,124
Belleville,Belleville,44.1667,-77.3833,124
Kapuskasing,Kapuskasing,49.4167,-82.4333,124
Sioux Lookout,Sioux Lookout,50.263,-91.9166,124
Winnipeg,Winnipeg,49.883,-97.166,124
Lake Louise,Lake Louise,51.4337,-116.1833,124
Banff,Banff,51.178,-115.5719,124
Doline,Doline,65.1833,-123.4167,124
Cambridge Bay,Cambridge Bay,69.117,-105.0333,124
Biggar,Biggar,52.0504,-107.9833,124
Nanaimo,Nanaimo,49.146,-123.9343,124
Val d'Or,Val d'Or,48.1166,-77.7666,124
Hall Beach,Hall Beach,68.7675,-81.2361,124
Oxford House,Oxford House,54.9504,-95.2666,124
The Pas,The Pas,53.8166,-101.2333,124
Meander River,Meander River,59.0333,-117.683,124
Bathurst,Bathurst,47.6,-65.65,124
Windsor,Windsor,44.9806,-64.1291,124
Victoriaville,Victoriaville,46.0504,-71.9667,124
Brockville,Brockville,44.5893,-75.6953,124
Hamilton,Hamilton,43.25,-79.83,124
Kitchener,Kitchener,43.45,-80.5,124
Victoria,Victoria,48.4333,-123.35,124
Orangeville,Orangeville,43.9171,-80.0833,124
Sandspit,Sandspit,53.2404,-131.8333,124
Wawa,Wawa,48.0004,-84.7833,124
Kangirsuk,Kangirsuk,60.0248,-69.9991,124
Shawinigan,Shawinigan,46.5504,-72.7333,124
Hearst,Hearst,49.7005,-83.6666,124
Pukatawagan,Pukatawagan,55.7333,-101.3166,124
Arviat,Arviat,61.1086,-94.0586,124
Matagami,Matagami,49.7504,-77.6333,124
Saint John,Saint John,45.267,-66.0767,124
Inuvik,Inuvik,68.35,-133.7,124
Chesterfield Inlet,Chesterfield Inlet,63.3383,-90.7001,124
Rouyn-Noranda,Rouyn-Noranda,48.25,-79.0332,124
Liverpool,Liverpool,44.04,-64.72,124
Montréal,Montreal,45.5,-73.5833,124
Shelburne,Shelburne,43.7656,-65.3194,124
Hay River,Hay River,60.85,-115.7,124
Salluit,Salluit,62.1826,-75.6595,124
Ivugivik,Ivugivik,62.4166,-77.9,124
Québec,Quebec,46.84,-71.2456,124
Dawson City,Dawson City,64.0666,-139.4167,124
Moncton,Moncton,46.0833,-64.7667,124
Digby,Digby,44.6226,-65.7605,124
Fredericton,Fredericton,45.95,-66.6333,124
Dease Lake,Dease Lake,58.4503,-130.0333,124
Charlottetown,Charlottetown,46.2493,-63.1313,124
Inukjuak,Inukjuak,58.47,-78.136,124
Sarnia,Sarnia,42.9666,-82.4,124
Edmundston,Edmundston,47.3794,-68.3333,124
Windsor,Windsor,42.3333,-83.0333,124
Joliette,Joliette,46.0333,-73.4333,124
Amherst,Amherst,45.8166,-64.2166,124
Sept-Îles,Sept-Iles,50.3161,-66.36,124
Yarmouth,Yarmouth,43.8308,-66.1126,124
Kimpese,Kimpese,-5.5496,14.4333,180
Uvira,Uvira,-3.37,29.14,180
Mbandaka,Mbandaka,0.04,18.26,180
Basankusu,Basankusu,1.2337,19.8,180
Moanda,Moanda,-5.9229,12.355,180
Lubutu,Lubutu,-0.7329,26.5833,180
Boma,Boma,-5.83,13.05,180
Kasongo,Kasongo,-4.45,26.66,180
Tshela,Tshela,-4.9696,12.93,180
Buluko,Buluko,-0.757,28.528,180
Mbanza-Ngungu,Mbanza-Ngungu,-5.2496,14.86,180
Kampene,Kampene,-3.5995,26.67,180
Goma,Goma,-1.6788,29.2218,180
Mwenga,Mwenga,-3.0382,28.4325,180
Kalima,Kalima,-2.5096,26.43,180
Kindu,Kindu,-2.9639,25.91,180
Bukavu,Bukavu,-2.51,28.84,180
Butembo,Butembo,0.13,29.28,180
Mbuji-Mayi,Mbuji-Mayi,-6.15,23.6,180
Kinshasa,Kinshasa,-4.3297,15.315,180
Kasangulu,Kasangulu,-4.5796,15.18,180
Tshikapa,Tshikapa,-6.41,20.77,180
Aketi,Aketi,2.7405,23.78,180
Beni,Beni,0.4904,29.45,180
Luebo,Luebo,-5.3495,21.41,180
Buta,Buta,2.82,24.74,180
Ilebo,Ilebo,-4.3196,20.61,180
Kananga,Kananga,-5.89,22.4,180
Bondo,Bondo,3.81,23.67,180
Mweka,Mweka,-4.8396,21.57,180
Demba,Demba,-5.5096,22.26,180
Isiro,Isiro,2.76,27.62,180
Wamba,Wamba,2.1404,27.99,180
Kamina,Kamina,-8.73,25.01,180
Bukama,Bukama,-9.2096,25.84,180
Watsa,Watsa,3.04,29.53,180
Kaniama,Kaniama,-7.5696,24.17,180
Mongbwalu,Mongbwalu,1.9504,30.0333,180
Bunia,Bunia,1.5604,30.24,180
Binga,Binga,2.3834,20.42,180
Bongandanga,Bongandanga,1.5104,21.05,180
Lubumbashi,Lubumbashi,-11.68,27.48,180
Lisala,Lisala,2.14,21.51,180
Gbadolite,Gbadolite,4.2904,21.0199,180
Kipushi,Kipushi,-11.7596,27.25,180
Bumba,Bumba,2.19,22.46,180
Kasongo-Lunda,Kasongo-Lunda,-6.4796,16.83,180
Businga,Businga,3.3404,20.87,180
Luanza,Luanza,-8.6996,28.7,180
Kahemba,Kahemba,-7.2829,19,180
Likasi,Likasi,-10.97,26.78,180
Kambove,Kambove,-10.8696,26.6,180
Lusanga,Lusanga,-5.5829,16.5167,180
Bosobolo,Bosobolo,4.1904,19.88,180
Bafwasende,Bafwasende,1.0838,27.2666,180
Kongolo,Kongolo,-5.3795,26.98,180
Basoko,Basoko,1.2404,23.59,180
Kisangani,Kisangani,0.52,25.22,180
Manono,Manono,-7.3,27.45,180
Mushie,Mushie,-3.0196,16.92,180
Inongo,Inongo,-1.94,18.28,180
Zongo,Zongo,4.3303,18.615,180
Kenge,Kenge,-4.8296,16.8999,180
Dibaya,Dibaya,-6.5095,22.87,180
Yangambi,Yangambi,0.7704,24.43,180
Gemena,Gemena,3.26,19.77,180
Moba,Moba,-7.0596,29.72,180
Libenge,Libenge,3.6604,18.62,180
Kalemie,Kalemie,-5.9333,29.2,180
Nyunzu,Nyunzu,-5.9496,28.0167,180
Kabalo,Kabalo,-6.0496,26.91,180
Bolobo,Bolobo,-2.1595,16.24,180
Ikela,Ikela,-1.1829,23.2666,180
Kikwit,Kikwit,-5.03,18.85,180
Lubao,Lubao,-5.3896,25.75,180
Gandajika,Gandajika,-6.7396,23.96,180
Lusambo,Lusambo,-4.9696,23.43,180
Kolwezi,Kolwezi,-10.7167,25.4724,180
Kasaji,Kasaji,-10.3662,23.45,180
Kabinda,Kabinda,-6.1296,24.48,180
Bandundu,Bandundu,-3.31,17.38,180
Mwene-Ditu,Mwene-Ditu,-7,23.44,180
Lodja,Lodja,-3.4896,23.42,180
Dilolo,Dilolo,-10.6996,22.3333,180
Bulungu,Bulungu,-4.5496,18.6,180
Mangai,Mangai,-4.0396,19.53,180
Matadi,Matadi,-5.8166,13.45,180
Boende,Boende,-0.2196,20.86,180
Bangui,Bangui,4.3666,18.5583,140
Nola,Nola,3.5337,16.0666,140
Bozoum,Bozoum,6.317,16.3833,140
Mobaye,Mobaye,4.32,21.18,140
Bimbo,Bimbo,4.329,18.5284,140
Kaga Bandoro,Kaga Bandoro,6.9804,19.18,140
Sibut,Sibut,5.7338,19.0833,140
Carnot,Carnot,4.9337,15.8666,140
Bouar,Bouar,5.95,15.6,140
Berbérati,Berberati,4.25,15.78,140
Zemio,Zemio,5.0337,25.1333,140
Yakossi,Yakossi,5.617,23.3167,140
Ouadda,Ouadda,8.0671,22.4,140
Obo,Obo,5.4,26.5,140
Bangassou,Bangassou,4.7338,22.8166,140
Bambari,Bambari,5.762,20.6672,140
Bossembélé,Bossembele,5.267,17.65,140
Bossangoa,Bossangoa,6.4837,17.45,140
Ndele,Ndele,8.4091,20.653,140
Bria,Bria,6.5333,21.9833,140
Birao,Birao,10.2837,22.7833,140
Mbaïki,Mbaiki,3.8704,18,140
Brazzaville,Brazzaville,-4.2592,15.2847,178
Sembe,Sembe,1.6404,14.58,178
Impfondo,Impfondo,1.6404,18.04,178
Djambala,Djambala,-2.5396,14.75,178
Moloundou,Moloundou,2.0337,15.2167,178
Kayes,Kayes,-4.18,13.28,178
Sibiti,Sibiti,-3.6896,13.35,178
Ewo,Ewo,-0.8796,14.82,178
Makoua,Makoua,-0.0096,15.64,178
Ouésso,Ouesso,1.61,16.05,178
Madingou,Madingou,-4.164,13.554,178
Kinkala,Kinkala,-4.356,14.762,178
Mossendjo,Mossendjo,-2.9396,12.72,178
Owando,Owando,-0.4796,15.92,178
Loubomo,Loubomo,-4.1796,12.67,178
Loango,Loango,-4.6519,11.8125,178
Pointe-Noire,Pointe-Noire,-4.77,11.88,178
Gamboma,Gamboma,-1.8795,15.85,178
Schaffhausen,Schaffhausen,47.6973,8.6349,756
Glarus,Glarus,47.05,9.0667,756
Zürich,Zurich,47.38,8.55,756
Delémont,Delemont,47.3664,7.329,756
Aarau,Aarau,47.3896,8.0524,756
Basel,Basel,47.5804,7.59,756
Solothurn,Solothurn,47.2066,7.5166,756
Fribourg,Fribourg,46.8,7.15,756
Zug,Zug,47.179,8.487,756
Chur,Chur,46.85,9.5,756
Sarnen,Sarnen,46.899,8.243,756
Schwyz,Schwyz,47.02,8.648,756
Luzern,Luzern,47.0504,8.28,756
Neuchâtel,Neuchatel,46.999,6.923,756
Altdorf,Altdorf,46.879,8.638,756
Biel,Biel,47.1666,7.25,756
Geneva,Geneva,46.21,6.14,756
Liestal,Liestal,47.483,7.737,756
Bern,Bern,46.9167,7.467,756
Stans,Stans,46.95,8.3833,756
Saint Gallen,Saint Gallen,47.423,9.362,756
Appenzell,Appenzell,47.3333,9.4167,756
Herisau,Herisau,47.3833,9.2833,756
Frauenfeld,Frauenfeld,47.568,9.108,756
Lugano,Lugano,46.0004,8.9667,756
Bellinzona,Bellinzona,46.197,9.02,756
Sion,Sion,46.239,7.354,756
Schaffhausen,Schaffhausen,47.706,8.633,756
Aarau,Aarau,47.39,8.034,756
Delémont,Delemont,47.37,7.345,756
Solothurn,Solothurn,47.212,7.537,756
Lausanne,Lausanne,46.5304,6.65,756
Bouaké,Bouake,7.69,-5.03,384
Man,Man,7.4004,-7.55,384
San-Pedro,San-Pedro,4.7704,-6.64,384
Korhogo,Korhogo,9.46,-5.64,384
Odienné,Odienne,9.5104,-7.58,384
Bondoukou,Bondoukou,8.0304,-2.8,384
Agboville,Agboville,5.9403,-4.28,384
Dabou,Dabou,5.3204,-4.3899,384
Abidjan,Abidjan,5.32,-4.04,384
Yamoussoukro,Yamoussoukro,6.8184,-5.2755,384
Gagnoa,Gagnoa,6.1504,-5.88,384
Abengourou,Abengourou,6.7304,-3.49,384
Soubré,Soubre,5.7904,-6.61,384
Daloa,Daloa,6.89,-6.45,384
Séguéla,Seguela,7.9504,-6.67,384
Aboisso,Aboisso,5.4667,-3.2,384
Guiglo,Guiglo,6.5505,-7.49,384
Toumodi,Toumodi,6.552,-5.019,384
Grand Bassam,Grand Bassam,5.2004,-3.75,384
Sassandra,Sassandra,4.9504,-6.0833,384
Divo,Divo,5.839,-5.36,384
Touba,Touba,8.28,-7.684,384
Ferkessédougou,Ferkessedougou,9.6004,-5.2,384
Bangolo,Bangolo,7.0123,-7.4864,384
Bouaflé,Bouafle,6.978,-5.748,384
Dimbokro,Dimbokro,6.6505,-4.71,384
Avarua,Avarua,-21.25,-159.75,184
Santiago,Santiago,-33.45,-70.667,152
Chanaral,Chanaral,-29.03,-71.43,152
Rancagua,Rancagua,-34.17,-70.74,152
Concepción,Concepcion,-36.83,-73.05,152
Victoria,Victoria,-38.2395,-72.34,152
Lonquimay,Lonquimay,-38.4333,-71.2333,152
Talca,Talca,-35.455,-71.67,152
Arica,Arica,-18.5,-70.29,152
Talcahuano,Talcahuano,-36.7167,-73.1167,152
Curanilahue,Curanilahue,-37.48,-73.34,152
Lota,Lota,-37.0896,-73.16,152
Coronel,Coronel,-37.03,-73.16,152
Diego de Almagro,Diego de Almagro,-26.3696,-70.05,152
Toltén,Tolten,-39.2166,-73.2123,152
Temuco,Temuco,-38.73,-72.58,152
Carahue,Carahue,-38.7095,-73.17,152
Quirihue,Quirihue,-36.28,-72.53,152
La Serena,La Serena,-29.9,-71.25,152
Loncoche,Loncoche,-39.37,-72.63,152
Nueva Imperial,Nueva Imperial,-38.74,-72.96,152
Chonchi,Chonchi,-42.61,-73.8099,152
Punta Arenas,Punta Arenas,-53.165,-70.94,152
Iquique,Iquique,-20.25,-70.13,152
María Elena,Maria Elena,-22.35,-69.67,152
Combarbalá,Combarbala,-31.18,-71,152
Vicuña,Vicuna,-30.0295,-70.74,152
Salamanca,Salamanca,-31.7796,-70.98,152
Caldera,Caldera,-27.0696,-70.83,152
Taltal,Taltal,-25.4,-70.47,152
Constitución,Constitucion,-35.3296,-72.42,152
Antofagasta,Antofagasta,-23.65,-70.4,152
Chuquicamata,Chuquicamata,-22.32,-68.93,152
Toconao,Toconao,-23.1829,-68.0166,152
Valdivia,Valdivia,-39.795,-73.245,152
Copiapó,Copiapo,-27.36,-70.34,152
Santa Bárbara,Santa Barbara,-37.67,-72.02,152
Los Lagos,Los Lagos,-39.8495,-72.83,152
Viña del Mar,Vina del Mar,-33.03,-71.54,152
Huasco,Huasco,-28.4696,-71.22,152
Collipulli,Collipulli,-37.96,-72.43,152
Villarica,Villarica,-39.28,-72.23,152
Tierra Amarilla,Tierra Amarilla,-27.48,-70.28,152
Lagunas,Lagunas,-20.9829,-69.6833,152
Coihaique,Coihaique,-45.57,-72.07,152
Cuya,Cuya,-19.1167,-70.1333,152
Mejillones,Mejillones,-23.1,-70.45,152
Río Verde,Rio Verde,-52.65,-71.4666,152
Villa O'Higgins,Villa O'Higgins,-48.4679,-72.56,152
Quellón,Quellon,-43.0996,-73.6,152
La Ligua,La Ligua,-32.46,-71.24,152
Quillota,Quillota,-32.88,-71.26,152
Tocopilla,Tocopilla,-22.09,-70.19,152
Calama,Calama,-22.45,-68.92,152
Vallenar,Vallenar,-28.57,-70.76,152
San Bernardo,San Bernardo,-33.6,-70.7,152
Pozo Almonte,Pozo Almonte,-20.2696,-69.8,152
Coquimbo,Coquimbo,-29.9529,-71.3436,152
Ovalle,Ovalle,-30.59,-71.2001,152
Illapel,Illapel,-31.6296,-71.17,152
San Felipe,San Felipe,-32.75,-70.72,152
Los Andes,Los Andes,-32.8296,-70.6,152
San Antonio,San Antonio,-33.5995,-71.61,152
Pichilemu,Pichilemu,-34.38,-72,152
San Fernando,San Fernando,-34.58,-70.99,152
Linares,Linares,-35.84,-71.59,152
Cauquenes,Cauquenes,-35.96,-72.32,152
Chillán,Chillan,-36.6,-72.106,152
Los Angeles,Los Angeles,-37.46,-72.36,152
Angol,Angol,-37.79,-72.71,152
Lebu,Lebu,-37.6096,-73.65,152
Osorno,Osorno,-40.57,-73.16,152
Castro,Castro,-42.4808,-73.7623,152
Puerto Aisén,Puerto Aisen,-45.3999,-72.7,152
Cochrane,Cochrane,-47.2663,-72.5499,152
Puerto Williams,Puerto Williams,-54.9333,-67.6167,152
Puerto Natales,Puerto Natales,-51.7183,-72.5117,152
Curicó,Curico,-34.98,-71.24,152
Ancud,Ancud,-41.87,-73.83,152
Puerto Montt,Puerto Montt,-41.47,-72.93,152
Puerto Varas,Puerto Varas,-41.33,-72.99,152
Calbuco,Calbuco,-41.7522,-73.1416,152
Río Bueno,Rio Bueno,-40.34,-72.96,152
La Unión,La Union,-40.29,-73.09,152
Valparaíso,Valparaiso,-33.0478,-71.621,152
Yaounde,Yaounde,3.8667,11.5167,120
Bertoua,Bertoua,4.5804,13.68,120
Mbalmayo,Mbalmayo,3.5204,11.5,120
Kontcha,Kontcha,7.967,12.2333,120
Mbe,Mbe,7.8504,13.6,120
Bafia,Bafia,4.7504,11.23,120
Edéa,Edea,3.8005,10.12,120
Bélabo,Belabo,4.9337,13.3,120
Meiganga,Meiganga,6.5205,14.29,120
Kribi,Kribi,2.9404,9.91,120
Eséka,Eseka,3.6504,10.7666,120
Ebolowa,Ebolowa,2.9,11.15,120
Ngaoundéré,Ngaoundere,7.3204,13.58,120
Batouri,Batouri,4.4337,14.3666,120
Abong Mbang,Abong Mbang,3.9837,13.1833,120
Limbe,Limbe,4.0304,9.19,120
Kumba,Kumba,4.6404,9.44,120
Buea,Buea,4.155,9.231,120
Nkongsamba,Nkongsamba,4.9604,9.94,120
Douala,Douala,4.0604,9.71,120
Kumbo,Kumbo,6.2204,10.68,120
Eyumojok,Eyumojok,5.7504,8.9833,120
Maroua,Maroua,10.5956,14.3247,120
Bafoussam,Bafoussam,5.4904,10.4099,120
Bafang,Bafang,5.1704,10.18,120
Garoua,Garoua,9.3,13.39,120
Guider,Guider,9.9304,13.94,120
Tibati,Tibati,6.467,12.6333,120
Foumban,Foumban,5.7304,10.9,120
Bamenda,Bamenda,5.96,10.15,120
Wum,Wum,6.4004,10.07,120
Lupanshui,Lupanshui,26.5944,104.8333,156
Yulin,Yulin,22.63,110.15,156
Shishou,Shishou,29.7004,112.4,156
Yantai,Yantai,37.5304,121.4,156
Fengcheng,Fengcheng,28.2004,115.77,156
Zibo,Zibo,36.8,118.05,156
Shanghai,Shanghai,31.2165,121.4365,156
Weifang,Weifang,36.7204,119.1001,156
Yongzhou,Yongzhou,26.2304,111.62,156
Zunyi,Zunyi,27.7,106.92,156
Wuyuan,Wuyuan,41.0896,108.2722,156
Shuangcheng,Shuangcheng,45.3503,126.28,156
Shijianzhuang,Shijianzhuang,38.05,114.48,156
Qinhuangdao,Qinhuangdao,39.9304,119.62,156
Guangshui,Guangshui,31.6204,114,156
Nanchang,Nanchang,28.68,115.88,156
Nehe,Nehe,48.49,124.88,156
Shangqiu,Shangqiu,34.4504,115.65,156
Hengshui,Hengshui,37.72,115.7,156
Xiaogan,Xiaogan,30.9204,113.9,156
Xiangtan,Xiangtan,27.8504,112.9,156
Xian,Xian,34.275,108.895,156
Tianjin,Tianjin,39.13,117.2,156
Daqing,Daqing,46.58,125,156
Taian,Taian,36.2,117.1201,156
Nangong,Nangong,37.3704,115.37,156
Shizuishan,Shizuishan,39.2333,106.769,156
Changsha,Changsha,28.2,112.97,156
Shenyeng,Shenyeng,41.805,123.45,156
Panshi,Panshi,42.9426,126.0561,156
Jilin,Jilin,43.85,126.55,156
Macheng,Macheng,31.18,115.03,156
Mishan,Mishan,45.5504,131.88,156
Hengyang,Hengyang,26.88,112.59,156
Keshan,Keshan,48.0263,125.866,156
Haikou,Haikou,20.05,110.32,156
Hohhot,Hohhot,40.82,111.66,156
Xinyang,Xinyang,32.1304,114.07,156
Lhasa,Lhasa,29.645,91.1,156
Huinan,Huinan,42.6229,126.2614,156
Zaozhuang,Zaozhuang,34.88,117.57,156
Laiwu,Laiwu,36.2004,117.66,156
Suzhou,Suzhou,33.6361,116.9789,156
Xiantao,Xiantao,30.3704,113.44,156
Yishui,Yishui,35.7904,118.62,156
Yiyang,Yiyang,28.6004,112.33,156
Anshan,Anshan,41.115,122.94,156
Bugt,Bugt,48.7838,121.9334,156
Chaoyang,Chaoyang,41.5504,120.42,156
Fujin,Fujin,47.2704,132.02,156
Chengdu,Chengdu,30.67,104.07,156
Dunhua,Dunhua,43.3505,128.22,156
Manzhouli,Manzhouli,49.6,117.43,156
Fuyang,Fuyang,32.9004,115.82,156
Xingyi,Xingyi,25.0904,104.89,156
Harbin,Harbin,45.75,126.65,156
Danjiangkou,Danjiangkou,32.52,111.5,156
Cangzhou,Cangzhou,38.3204,116.87,156
Fuxin,Fuxin,42.0105,121.66,156
Anshun,Anshun,26.2504,105.93,156
Minxian,Minxian,34.4362,104.0306,156
Nanning,Nanning,22.82,108.32,156
Zhangjiakou,Zhangjiakou,40.83,114.93,156
Baotou,Baotou,40.6522,109.822,156
Benxi,Benxi,41.3304,123.75,156
Zhengzhou,Zhengzhou,34.755,113.6651,156
Huainan,Huainan,32.63,116.98,156
Tongren,Tongren,27.6804,109.13,156
Hancheng,Hancheng,35.4704,110.43,156
Huaiyin,Huaiyin,33.58,119.03,156
Jieshou,Jieshou,33.2504,115.35,156
Zicheng,Zicheng,30.3004,111.5,156
Tieling,Tieling,42.3004,123.82,156
Beihai,Beihai,21.4804,109.1,156
Shanxian,Shanxian,34.7904,116.08,156
Linyi,Linyi,35.08,118.33,156
Shuangyashan,Shuangyashan,46.6704,131.35,156
Yishan,Yishan,24.5004,108.6667,156
Puqi,Puqi,29.7204,113.88,156
Fuyu,Fuyu,45.1804,124.82,156
Maoming,Maoming,21.9204,110.87,156
Weinan,Weinan,34.5004,109.5001,156
Dali,Dali,34.7953,109.9378,156
Shache,Shache,38.4261,77.25,156
Tangshan,Tangshan,39.6243,118.1944,156
Jianmen,Jianmen,30.6501,113.16,156
Fushun,Fushun,41.8654,123.87,156
Zhuozhou,Zhuozhou,39.5401,115.79,156
Zhaotang,Zhaotang,27.3204,103.72,156
Pingxiang,Pingxiang,22.0974,106.7567,156
Linfen,Linfen,36.0803,111.52,156
Jiutai,Jiutai,44.1447,125.8443,156
Dunhuang,Dunhuang,40.1427,94.662,156
Jinzhou,Jinzhou,41.1204,121.1,156
Laiyang,Laiyang,36.9684,120.7084,156
Guiyang,Guiyang,26.58,106.72,156
Fuzhou,Fuzhou,26.08,119.3,156
Bengbu,Bengbu,32.95,117.33,156
Chuxiong,Chuxiong,25.0364,101.5456,156
Hebi,Hebi,35.9504,114.22,156
Shuyang,Shuyang,34.1299,118.7734,156
Lingyuan,Lingyuan,41.24,119.4011,156
Jining,Jining,35.4004,116.55,156
Buizhou,Buizhou,37.3704,118.02,156
Langfang,Langfang,39.5204,116.68,156
Dingzhou,Dingzhou,38.5004,115,156
Baoding,Baoding,38.8704,115.48,156
Hangu,Hangu,39.232,117.777,156
Liaoyuan,Liaoyuan,42.9,125.13,156
Yanji,Yanji,42.8823,129.5128,156
Xuanzhou,Xuanzhou,30.9525,118.7553,156
Yingkow,Yingkow,40.6703,122.28,156
Guangyuan,Guangyuan,32.43,105.87,156
Tongling,Tongling,30.9504,117.78,156
Changling,Changling,44.27,123.99,156
Nongan,Nongan,44.4304,125.1701,156
Gejiu,Gejiu,23.38,103.1501,156
Mengzi,Mengzi,23.3619,103.4061,156
Luzhou,Luzhou,28.88,105.38,156
Tengchong,Tengchong,25.0333,98.4666,156
Huize,Huize,26.3504,103.4167,156
Zhanyi,Zhanyi,25.6005,103.8166,156
Liuhe,Liuhe,42.2789,125.7173,156
Deyang,Deyang,31.1333,104.4,156
Yibin,Yibin,28.77,104.57,156
Zhijiang,Zhijiang,27.4409,109.678,156
Shaoyang,Shaoyang,27,111.2001,156
Yueyang,Yueyang,29.3801,113.1,156
Neijiang,Neijiang,29.5804,105.05,156
Langzhong,Langzhong,31.5759,105.9656,156
Xichang,Xichang,27.88,102.3,156
Wenshan,Wenshan,23.3724,104.2497,156
Xuzhou,Xuzhou,34.28,117.18,156
Zigong,Zigong,29.4,104.78,156
Mianyang,Mianyang,31.47,104.77,156
Shaowu,Shaowu,27.3004,117.5,156
Suining,Suining,30.5333,105.5333,156
Panzhihua,Panzhihua,26.55,101.73,156
Nanchong,Nanchong,30.7804,106.13,156
Tonghua,Tonghua,41.68,125.75,156
Shaoguan,Shaoguan,24.8,113.58,156
Chaozhou,Chaozhou,23.68,116.63,156
Meizhou,Meizhou,24.3005,116.12,156
Xiamen,Xiamen,24.45,118.08,156
Zhangzhou,Zhangzhou,24.5204,117.67,156
Zhuhai,Zhuhai,22.2769,113.5678,156
Putian,Putian,25.4303,119.02,156
Foshan,Foshan,23.0301,113.12,156
Dongguan,Dongguan,23.0489,113.7447,156
Zhanjiang,Zhanjiang,21.2,110.38,156
Jiangmen,Jiangmen,22.5804,113.08,156
Huizhou,Huizhou,23.08,114.4,156
Qingyuan,Qingyuan,23.7004,113.0301,156
Heyuan,Heyuan,23.7304,114.68,156
Quanzhou,Quanzhou,24.9,118.58,156
Longyan,Longyan,25.1804,117.03,156
Sanming,Sanming,26.23,117.58,156
Ninde,Ninde,26.6804,119.5301,156
Wuzhou,Wuzhou,23.48,111.32,156
Zhaoqing,Zhaoqing,23.0504,112.45,156
Wangqing,Wangqing,43.3248,129.7343,156
Shenzhen,Shenzhen,22.5524,114.1221,156
Guilin,Guilin,25.28,110.28,156
Liuzhou,Liuzhou,24.28,109.25,156
Yuxi,Yuxi,24.38,102.57,156
Kunming,Kunming,25.07,102.68,156
Nanping,Nanping,26.6304,118.17,156
Pingdingshan,Pingdingshan,33.7304,113.3,156
Ningbo,Ningbo,29.88,121.55,156
Nanyang,Nanyang,33.0004,112.53,156
Longxi,Longxi,35.0476,104.6394,156
Linjiang,Linjiang,41.8363,126.936,156
Changting,Changting,25.867,116.3167,156
Jiujiang,Jiujiang,29.73,115.98,156
Helong,Helong,42.5348,129.0044,156
Chifeng,Chifeng,42.27,118.95,156
Yichun,Yichun,27.8333,114.4,156
Jian,Jian,27.1304,115,156
Anlu,Anlu,31.27,113.67,156
Shaoxing,Shaoxing,30.0004,120.57,156
Shashi,Shashi,30.32,112.23,156
Huangshi,Huangshi,30.22,115.1,156
Sanya,Sanya,18.2591,109.504,156
Shangrao,Shangrao,28.4704,117.97,156
Bose,Bose,23.8997,106.6133,156
Simao,Simao,22.7807,100.9782,156
Wuhan,Wuhan,30.58,114.27,156
Yichang,Yichang,30.7,111.28,156
Jingdezhen,Jingdezhen,29.2704,117.18,156
Shiyan,Shiyan,32.57,110.78,156
Lianyungang,Lianyungang,34.6004,119.17,156
Tongliao,Tongliao,43.62,122.27,156
Kailu,Kailu,43.5837,121.2,156
Xiangfan,Xiangfan,32.02,112.13,156
Jinshi,Jinshi,29.6321,111.8517,156
Xilinhot,Xilinhot,43.9443,116.0443,156
Jincheng,Jincheng,35.5004,112.83,156
Jining,Jining,41.03,113.08,156
Yangquan,Yangquan,37.87,113.57,156
Ergun Zuoqi,Ergun Zuoqi,50.7833,121.5167,156
Shuozhou,Shuozhou,39.3004,112.42,156
Anxi,Anxi,40.5004,95.8,156
Pingdu,Pingdu,36.7904,119.94,156
Jinan,Jinan,36.675,116.995,156
Yuci,Yuci,37.6804,112.73,156
Pingyi,Pingyi,35.5104,117.62,156
Guangzhou,Guangzhou,23.145,113.325,156
Xigaze,Xigaze,29.25,88.8833,156
Changde,Changde,29.03,111.68,156
Datong,Datong,40.08,113.3,156
Luoyang,Luoyang,34.68,112.4701,156
Shulan,Shulan,44.4091,126.9487,156
Changchun,Changchun,43.865,125.34,156
Daan,Daan,45.5,124.3,156
Beipiao,Beipiao,41.81,120.76,156
Huanghua,Huanghua,38.3704,117.33,156
Liaoyang,Liaoyang,41.28,123.18,156
Handan,Handan,36.58,114.48,156
Chengde,Chengde,40.9604,117.93,156
Tumen,Tumen,42.97,129.8201,156
Bayan Obo,Bayan Obo,41.7676,109.9711,156
Alxa Zuoqi,Alxa Zuoqi,38.839,105.6686,156
Bairin Zuoqi,Bairin Zuoqi,43.9837,119.1834,156
Linxi,Linxi,43.5171,118.0333,156
Jiaozuo,Jiaozuo,35.25,113.22,156
Tianshui,Tianshui,34.6,105.92,156
Taiyuan,Taiyuan,37.875,112.5451,156
Hulin,Hulin,45.769,132.9922,156
Yunxian,Yunxian,32.8082,110.8136,156
Chamdo,Chamdo,31.1667,97.2333,156
Beijing,Beijing,39.9289,116.3883,156
Wuxi,Wuxi,31.58,120.3,156
Longjiang,Longjiang,47.3404,123.18,156
Maanshan,Maanshan,31.7304,118.48,156
Shangdu,Shangdu,41.5494,113.5339,156
Changping,Changping,40.2248,116.1944,156
Hanggin Houqi,Hanggin Houqi,40.8847,107.14,156
Changzhou,Changzhou,31.78,119.97,156
Fengjie,Fengjie,31.0504,109.5167,156
Weihai,Weihai,37.5,122.1,156
Wuhu,Wuhu,31.3504,118.37,156
Gannan,Gannan,47.9204,123.51,156
Jingmen,Jingmen,31.0304,112.1,156
Arxan,Arxan,47.1833,119.9666,156
Orongen Zizhiqi,Orongen Zizhiqi,50.5667,123.7167,156
Qingan,Qingan,46.8719,127.5118,156
Dali,Dali,25.7,100.18,156
Baoshan,Baoshan,25.12,99.15,156
Lijiang,Lijiang,26.8,100.2666,156
Yakeshi,Yakeshi,49.2804,120.73,156
Tailai,Tailai,46.3904,123.41,156
Baiquan,Baiquan,47.6018,126.0819,156
Hailar,Hailar,49.2,119.7,156
Guide,Guide,36.0451,101.4242,156
Wanzhou,Wanzhou,30.82,108.4,156
Rongzhag,Rongzhag,30.9504,101.9167,156
Baishan,Baishan,41.9,126.43,156
Jyekundo,Jyekundo,33.0166,96.7333,156
Jixi,Jixi,45.3,130.97,156
Xinyu,Xinyu,27.8,114.93,156
Boli,Boli,45.7564,130.5759,156
Wuchuan,Wuchuan,41.0955,111.4408,156
Xinqing,Xinqing,48.2363,129.5059,156
Linxia,Linxia,35.6,103.2,156
Anda,Anda,46.4,125.32,156
Nancha,Nancha,47.1364,129.2859,156
Shihezi,Shihezi,44.3,86.0299,156
Yichun,Yichun,47.6999,128.9,156
Karamay,Karamay,45.5899,84.8599,156
Lanxi,Lanxi,46.2664,126.276,156
Jiamusi,Jiamusi,46.83,130.35,156
Suileng,Suileng,47.246,127.106,156
Suihua,Suihua,46.6304,126.98,156
Zhaodong,Zhaodong,46.0804,125.98,156
Hailun,Hailun,47.4504,126.93,156
Zhuzhou,Zhuzhou,27.83,113.15,156
Nenjiang,Nenjiang,49.18,125.23,156
Qinggang,Qinggang,46.69,126.1,156
Ningan,Ningan,44.3313,129.4659,156
Yian,Yian,47.8804,125.3,156
Mudangiang,Mudangiang,44.575,129.59,156
Golmud,Golmud,36.4166,94.8833,156
Jiayuguan,Jiayuguan,39.82,98.3,156
Pingxiang,Pingxiang,27.62,113.85,156
Gyangze,Gyangze,28.95,89.6333,156
Zhucheng,Zhucheng,35.99,119.3801,156
Zalantun,Zalantun,48,122.72,156
Shangzhi,Shangzhi,45.2204,127.97,156
Linkou,Linkou,45.2819,130.2519,156
Pingliang,Pingliang,35.5304,106.6801,156
Zhangye,Zhangye,38.93,100.45,156
Angangxi,Angangxi,47.1601,123.8,156
Tieli,Tieli,46.9504,128.05,156
Nagchu,Nagchu,31.48,92.05,156
Ganzhou,Ganzhou,25.92,114.95,156
Hegang,Hegang,47.4,130.37,156
Qinzhou,Qinzhou,21.9504,108.62,156
Beian,Beian,48.239,126.482,156
Yangjiang,Yangjiang,21.8504,111.97,156
Huaibei,Huaibei,33.9504,116.75,156
Wuhai,Wuhai,39.6647,106.8122,156
Zixing,Zixing,25.97,113.4,156
Anqing,Anqing,30.5,117.05,156
Yaan,Yaan,29.9804,103.08,156
Hotan,Hotan,37.0997,79.9269,156
Ürümqi,Urumqi,43.805,87.575,156
Lianxian,Lianxian,24.7815,112.3825,156
Wuwei,Wuwei,37.928,102.641,156
Tacheng,Tacheng,46.75,82.95,156
Luan,Luan,31.7503,116.48,156
Altay,Altay,47.8666,88.1166,156
Qingdao,Qingdao,36.09,120.33,156
Liaocheng,Liaocheng,36.4304,115.97,156
Heihe,Heihe,50.25,127.446,156
Leshan,Leshan,29.5671,103.7333,156
Fulin,Fulin,29.35,102.7167,156
Erenhot,Erenhot,43.6616,111.9655,156
Puyang,Puyang,35.7004,114.98,156
Yancheng,Yancheng,33.3856,120.1253,156
Kashgar,Kashgar,39.4763,75.9699,156
Dezhou,Dezhou,37.4504,116.3,156
Xiangtai,Xiangtai,37.05,114.5,156
Rizhao,Rizhao,35.4304,119.45,156
Heze,Heze,35.23,115.45,156
Gar,Gar,32.2004,79.9833,156
Jiaohe,Jiaohe,43.7163,127.346,156
Hechi,Hechi,23.0965,109.6091,156
Xuanhua,Xuanhua,40.5944,115.0243,156
Anyang,Anyang,36.08,114.35,156
Kaifeng,Kaifeng,34.85,114.35,156
Dengzhou,Dengzhou,32.6804,112.08,156
Xuchang,Xuchang,34.0204,113.82,156
Xinxiang,Xinxiang,35.3204,113.87,156
Nyingchi,Nyingchi,29.5333,94.4167,156
Yumen,Yumen,39.83,97.73,156
Luohe,Luohe,33.57,114.03,156
Zhoukou,Zhoukou,33.6304,114.63,156
Jinchang,Jinchang,38.4957,102.1739,156
Korla,Korla,41.73,86.15,156
Aksu,Aksu,41.15,80.25,156
Fuan,Fuan,27.0704,119.62,156
Hami,Hami,42.827,93.515,156
Kuqa,Kuqa,41.7277,82.9364,156
Turpan,Turpan,42.9354,89.165,156
Quiemo,Quiemo,38.1338,85.5333,156
Yining,Yining,43.9,81.35,156
Linchuan,Linchuan,27.9703,116.36,156
Linqing,Linqing,36.8504,115.68,156
Koktokay,Koktokay,47.0004,89.4666,156
Jinxi,Jinxi,40.7503,120.83,156
Chongqing,Chongqing,29.565,106.595,156
Xining,Xining,36.62,101.77,156
Lanzhou,Lanzhou,36.056,103.792,156
Yinchuan,Yinchuan,38.468,106.273,156
Hefei,Hefei,31.85,117.28,156
Ankang,Ankang,32.68,109.02,156
Jiexiu,Jiexiu,37.04,111.9,156
Xianyang,Xianyang,34.3456,108.7147,156
Yulin,Yulin,38.2833,109.7333,156
Fengzhen,Fengzhen,40.4547,113.1443,156
Baoji,Baoji,34.38,107.15,156
Tongchuan,Tongchuan,35.08,109.03,156
Hanzhong,Hanzhong,33.13,107.03,156
Xinzhou,Xinzhou,38.4104,112.72,156
Changzhi,Changzhi,36.1839,113.1053,156
Houma,Houma,35.62,111.21,156
Hulan Ergi,Hulan Ergi,47.21,123.61,156
Xinyi,Xinyi,34.38,118.35,156
Qiqihar,Qiqihar,47.345,123.99,156
Taonan,Taonan,45.3304,122.78,156
Baicheng,Baicheng,45.62,122.82,156
Ulanhot,Ulanhot,46.08,122.08,156
Qitaihe,Qitaihe,45.8,130.85,156
Chenzhou,Chenzhou,25.8004,113.0301,156
Nanjing,Nanjing,32.05,118.78,156
Nantong,Nantong,32.0304,120.825,156
Yangzhou,Yangzhou,32.4,119.43,156
Zhenjiang,Zhenjiang,32.22,119.43,156
Taizhou,Taizhou,32.4904,119.9,156
Suzhou,Suzhou,31.3005,120.62,156
Jiaojing,Jiaojing,28.6804,121.45,156
Jiaxing,Jiaxing,30.7704,120.75,156
Hangzhou,Hangzhou,30.25,120.17,156
Huzhou,Huzhou,30.8704,120.1,156
Huangyan,Huangyan,28.65,121.25,156
Linhai,Linhai,28.85,121.12,156
Wenzhou,Wenzhou,28.02,120.6501,156
Jinhua,Jinhua,29.12,119.65,156
Lishui,Lishui,28.4504,119.9,156
Quzhou,Quzhou,28.9704,118.87,156
Fuyang,Fuyang,30.0533,119.9519,156
Wafangdian,Wafangdian,39.6259,121.996,156
Zhuanghe,Zhuanghe,39.6823,122.9619,156
Dalian,Dalian,38.9228,121.6298,156
Siping,Siping,43.17,124.33,156
Dandong,Dandong,40.1436,124.3936,156
Huanren,Huanren,41.2563,125.346,156
Shantou,Shantou,23.37,116.67,156
Tumaco,Tumaco,1.81,-78.81,170
Sincelejo,Sincelejo,9.2904,-75.38,170
Quibdó,Quibdo,5.6904,-76.66,170
Inírida,Inirida,3.854,-67.9061,170
Pasto,Pasto,1.2136,-77.2811,170
Ibagué,Ibague,4.4389,-75.2322,170
Leticia,Leticia,-4.22,-69.94,170
Cartago,Cartago,4.75,-75.91,170
Cali,Cali,3.4,-76.5,170
Barranquilla,Barranquilla,10.96,-74.8,170
Nuquí,Nuqui,5.6852,-77.2745,170
Yarumal,Yarumal,7.0306,-75.5905,170
San Andrés,San Andres,12.5621,-81.6903,170
Riohacha,Riohacha,11.5403,-72.91,170
Pereira,Pereira,4.8104,-75.68,170
Armenia,Armenia,4.5343,-75.6811,170
Arjona,Arjona,10.26,-75.35,170
Cartagena,Cartagena,10.3997,-75.5144,170
Tunja,Tunja,5.5504,-73.37,170
Honda,Honda,5.1903,-74.75,170
Puerto Carreño,Puerto Carreno,6.185,-67.493,170
Tolú,Tolu,9.5358,-75.572,170
El Carmen de Bolívar,El Carmen de Bolivar,9.7204,-75.13,170
Arauca,Arauca,7.0907,-70.7616,170
Neiva,Neiva,2.931,-75.3302,170
Campoalegre,Campoalegre,2.69,-75.33,170
Puerto López,Puerto Lopez,4.09,-72.96,170
Villavicencio,Villavicencio,4.1533,-73.635,170
San Martín,San Martin,3.6904,-73.69,170
El Banco,El Banco,9.0003,-73.98,170
Sabanalarga,Sabanalarga,10.64,-74.92,170
Turbo,Turbo,8.1004,-76.74,170
Mocoa,Mocoa,1.15,-76.63,170
Medellín,Medellin,6.275,-75.575,170
Yopal,Yopal,5.347,-72.406,170
Ipiales,Ipiales,0.8304,-77.65,170
Ocaña,Ocana,8.2404,-73.35,170
San José del Guaviare,San Jose del Guaviare,2.57,-72.64,170
San Vicente del Caguán,San Vicente del Caguan,2.0704,-74.64,170
Puerto Berrío,Puerto Berrio,6.4804,-74.42,170
Valledupar,Valledupar,10.48,-73.25,170
Soledad,Soledad,10.92,-74.77,170
Bucaramanga,Bucaramanga,7.1301,-73.1259,170
Socorro,Socorro,6.4603,-73.27,170
Duitama,Duitama,5.8305,-73.02,170
Montería,Monteria,8.7575,-75.89,170
Sogamoso,Sogamoso,5.72,-72.94,170
Sonsón,Sonson,5.7166,-75.3166,170
Cúcuta,Cucuta,7.92,-72.52,170
Chiquinquirá,Chiquinquira,5.6204,-73.8199,170
Guapi,Guapi,2.5604,-77.86,170
Buenaventura,Buenaventura,3.8724,-77.0505,170
Bogota,Bogota,4.5964,-74.0833,170
Pamplona,Pamplona,7.3904,-72.66,170
Magangué,Magangue,9.23,-74.74,170
Lorica,Lorica,9.2419,-75.816,170
Ayapel,Ayapel,8.3304,-75.15,170
Ciénaga,Cienaga,11.0104,-74.25,170
Santa Marta,Santa Marta,11.2472,-74.2017,170
Orocue,Orocue,4.7946,-71.34,170
Tuluá,Tulua,4.0904,-76.21,170
Manizales,Manizales,5.06,-75.52,170
Girardot,Girardot,4.31,-74.81,170
Garzón,Garzon,2.2104,-75.65,170
Florencia,Florencia,1.6104,-75.62,170
Bello,Bello,6.33,-75.57,170
Túquerres,Tuquerres,1.09,-77.6199,170
Juradó,Jurado,7.1217,-77.7564,170
Tame,Tame,6.4603,-71.74,170
Mitú,Mitu,1.1983,-70.1736,170
Popayán,Popayan,2.42,-76.61,170
Barrancabermeja,Barrancabermeja,7.09,-73.85,170
San José,San Jose,9.935,-84.0841,188
Sixaola,Sixaola,9.5204,-82.62,188
Alajuela,Alajuela,10.02,-84.23,188
La Cruz,La Cruz,11.0704,-85.63,188
Cartago,Cartago,9.87,-83.93,188
Liberia,Liberia,10.6338,-85.4333,188
Canas,Canas,10.43,-85.1,188
Puerto Limon,Puerto Limon,10,-83.0333,188
Ciudad Cortes,Ciudad Cortes,8.9604,-83.53,188
Golfito,Golfito,8.65,-83.15,188
Quesada,Quesada,10.3305,-84.44,188
Puntarenas,Puntarenas,9.9702,-84.8336,188
Heredia,Heredia,9.992,-84.12,188
Havana,Havana,23.132,-82.3642,192
Güines,Guines,22.8361,-82.028,192
San Antonio de los Baños,San Antonio de los Banos,22.8911,-82.4991,192
Placetas,Placetas,22.3158,-79.6555,192
Sagua la Grande,Sagua la Grande,22.809,-80.0711,192
Manzanillo,Manzanillo,20.3438,-77.1166,192
Colón,Colon,22.7196,-80.9058,192
Caibarién,Caibarien,22.5158,-79.4722,192
Artemisa,Artemisa,22.8134,-82.7619,192
Bayamo,Bayamo,20.3795,-76.6433,192
Camagüey,Camaguey,21.3808,-77.9169,192
Ciego de Ávila,Ciego de Avila,21.84,-78.7619,192
Cienfuegos,Cienfuegos,22.1444,-80.4403,192
Guantánamo,Guantanamo,20.1453,-75.2061,192
Holguín,Holguin,20.8872,-76.2631,192
Matanzas,Matanzas,23.0415,-81.5775,192
Nueva Gerona,Nueva Gerona,21.8837,-82.8,192
Pinar del Rio,Pinar del Rio,22.4175,-83.6981,192
San José de las Lajas,San Jose de las Lajas,22.9614,-82.1511,192
Sancti Spíritus,Sancti Spiritus,21.9301,-79.4425,192
Santa Clara,Santa Clara,22.4,-79.9667,192
Santiago de Cuba,Santiago de Cuba,20.025,-75.8213,192
Las Tunas,Las Tunas,20.9601,-76.9544,192
Banes,Banes,20.9629,-75.7186,192
Palma Soriano,Palma Soriano,20.2172,-75.9988,192
Nuevitas,Nuevitas,21.5456,-77.2644,192
Morón,Moron,22.1099,-78.6275,192
Vila da Ribeira Brava,Vila da Ribeira Brava,16.6167,-24.3,132
Tarrafal,Tarrafal,16.5667,-24.3667,132
Vila do Maio,Vila do Maio,15.1333,-23.2167,132
Porto dos Mosteiros,Porto dos Mosteiros,15.0333,-24.3333,132
São Domingos,Sao Domingos,15.0167,-23.5667,132
Picos,Picos,15.0833,-23.65,132
Vila Nova Sintra,Vila Nova Sintra,14.8667,-24.7167,132
São Filipe,Sao Filipe,14.9,-24.5167,132
Tarrafal,Tarrafal,15.2833,-23.7667,132
Praia,Praia,14.9167,-23.5167,132
Assomada,Assomada,15.1,-23.6833,132
Cidade Velha,Cidade Velha,14.9167,-23.6167,132
Cova Figueira,Cova Figueira,14.8833,-24.3,132
Mindelo,Mindelo,16.8838,-25,132
Porto Novo,Porto Novo,17.0254,-25.0666,132
Ribeira Grande,Ribeira Grande,17.1856,-25.0724,132
Pombas,Pombas,17.1503,-25.0201,132
Calheta de São Miguel,Calheta de Sao Miguel,15.1833,-23.6,132
Vila de Sal Rei,Vila de Sal Rei,16.1833,-22.9167,132
Santa Maria,Santa Maria,16.6,-22.9,132
Flying Fish Cove,Flying Fish Cove,-10.4167,105.7167,162
Lemosos,Lemosos,34.6754,33.0333,196
Famagusta,Famagusta,35.1205,33.9389,196
Larnaka,Larnaka,34.917,33.636,196
Kyrenia,Kyrenia,35.3363,33.3173,196
Paphos,Paphos,34.7559,32.4225,196
Nicosia,Nicosia,35.1667,33.3666,196
Usti Nad Labem,Usti Nad Labem,50.663,14.081,203
Pardubice,Pardubice,50.0404,15.76,203
Jihlava,Jihlava,49.4004,15.5833,203
Liberec,Liberec,50.8,15.08,203
Prague,Prague,50.0833,14.466,203
Brno,Brno,49.2004,16.61,203
Pizen,Pizen,49.7404,13.36,203
České Budějovice,Ceske Budejovice,48.98,14.46,203
Karlovy Vary,Karlovy Vary,50.237,12.875,203
Ostrava,Ostrava,49.8304,18.25,203
Olomouc,Olomouc,49.63,17.25,203
Hradec Králové,Hradec Kralove,50.206,15.812,203
Zlín,Zlin,49.2304,17.65,203
Berlin,Berlin,52.5218,13.4015,276
Cologne,Cologne,50.93,6.95,276
Munich,Munich,48.1299,11.575,276
Potsdam,Potsdam,52.4004,13.07,276
Kiel,Kiel,54.3304,10.13,276
Wiesbaden,Wiesbaden,50.0804,8.25,276
Magdeburg,Magdeburg,52.1304,11.62,276
Bremen,Bremen,53.08,8.8,276
Hannover,Hannover,52.367,9.7167,276
Düsseldorf,Dusseldorf,51.2204,6.78,276
Saarbrücken,Saarbrucken,49.2504,6.97,276
Schwerin,Schwerin,53.6333,11.4167,276
Hamburg,Hamburg,53.55,10,276
Stuttgart,Stuttgart,48.78,9.2,276
Dresden,Dresden,51.05,13.75,276
Erfurt,Erfurt,50.9701,11.03,276
Mainz,Mainz,49.9825,8.2732,276
Rostock,Rostock,54.0704,12.15,276
Kassel,Kassel,51.3,9.5,276
Dortmund,Dortmund,51.53,7.45,276
Duisburg,Duisburg,51.43,6.75,276
Essen,Essen,51.45,7.0166,276
Bonn,Bonn,50.7205,7.08,276
Bielefeld,Bielefeld,52.03,8.53,276
Lübeck,Lubeck,53.8704,10.67,276
Flensburg,Flensburg,54.7837,9.4333,276
Emden,Emden,53.3667,7.2167,276
Wuppertal,Wuppertal,51.25,7.17,276
Münster,Munster,51.9704,7.62,276
Osnabrück,Osnabruck,52.2804,8.05,276
Göttingen,Gottingen,51.5204,9.92,276
Oldenburg,Oldenburg,53.13,8.22,276
Stralsund,Stralsund,54.3004,13.1,276
Braunschweig,Braunschweig,52.25,10.5,276
Bremerhaven,Bremerhaven,53.5504,8.58,276
Freiburg,Freiburg,48.0004,7.8699,276
Karlsruhe,Karlsruhe,49,8.4,276
Heidelberg,Heidelberg,49.42,8.7,276
Ingolstadt,Ingolstadt,48.7704,11.45,276
Passau,Passau,48.567,13.4666,276
Rosenheim,Rosenheim,47.8503,12.1333,276
Augsburg,Augsburg,48.35,10.9,276
Regensburg,Regensburg,49.0204,12.12,276
Würzburg,Wurzburg,49.8004,9.95,276
Coburg,Coburg,50.2666,10.9666,276
Hof,Hof,50.317,11.9167,276
Ulm,Ulm,48.4004,10,276
Nürnberg,Nurnberg,49.45,11.08,276
Fürth,Furth,49.47,11,276
Gießen,Giessen,50.5837,8.65,276
Mannheim,Mannheim,49.5004,8.47,276
Frankfurt,Frankfurt,50.1,8.675,276
Koblenz,Koblenz,50.3505,7.6,276
Chemnitz,Chemnitz,50.83,12.92,276
Cottbus,Cottbus,51.7704,14.33,276
Jena,Jena,50.9304,11.58,276
Gera,Gera,50.8704,12.07,276
Leipzig,Leipzig,51.3354,12.41,276
Tadjoura,Tadjoura,11.7833,42.9,262
Arta,Arta,11.5264,42.8519,262
Ali Sabih,Ali Sabih,11.1562,42.7125,262
Dikhil,Dikhil,11.104,42.372,262
Djibouti,Djibouti,11.595,43.148,262
Obock,Obock,11.9734,43.2856,262
Vejle,Vejle,55.709,9.535,208
Hillerød,Hillerod,55.9333,12.3167,208
København,Kobenhavn,55.6786,12.5635,208
Viborg,Viborg,56.4333,9.4,208
Sorø,Soro,55.433,11.5667,208
Roskilde,Roskilde,55.65,12.0833,208
Odense,Odense,55.4004,10.3833,208
Svendborg,Svendborg,55.0704,10.6167,208
Esbjerg,Esbjerg,55.467,8.45,208
Århus,Aarhus,56.1572,10.2107,208
Aalborg,Aalborg,57.0337,9.9166,208
Frederikshavn,Frederikshavn,57.4337,10.5333,208
Roseau,Roseau,15.301,-61.387,212
El Seibo,El Seibo,18.764,-69.035,214
Cotuí,Cotui,19.059,-70.152,214
Pedernales,Pedernales,18.038,-71.741,214
Neiba,Neiba,18.4666,-71.4166,214
Jimaní,Jimani,18.493,-71.851,214
Comendador,Comendador,18.876,-71.707,214
Monte Cristi,Monte Cristi,19.867,-71.65,214
Sabaneta,Sabaneta,19.505,-71.345,214
Dajabón,Dajabon,19.548,-71.705,214
Puerto Plata,Puerto Plata,19.7902,-70.6902,214
Moca,Moca,19.397,-70.523,214
Samaná,Samana,19.212,-69.332,214
Higuey,Higuey,18.616,-68.708,214
Monte Plata,Monte Plata,18.807,-69.784,214
Hato Mayor,Hato Mayor,18.764,-69.257,214
Nagua,Nagua,19.376,-69.847,214
Salcedo,Salcedo,19.383,-70.4167,214
Azua,Azua,18.454,-70.729,214
Baní,Bani,18.28,-70.331,214
Bonao,Bonao,18.942,-70.409,214
San Francisco de Macorís,San Francisco de Macoris,19.3,-70.25,214
Mao,Mao,19.552,-71.075,214
Santo Domingo Este,Santo Domingo Este,18.4885,-69.8571,214
San Cristóbal,San Cristobal,18.416,-70.109,214
La Romana,La Romana,18.417,-68.9666,214
Santiago,Santiago,19.5,-70.67,214
Santo Domingo,Santo Domingo,18.4701,-69.9001,214
La Vega,La Vega,19.2166,-70.5166,214
San Juan,San Juan,18.807,-71.229,214
Barahona,Barahona,18.2004,-71.1,214
San Pedro de Macorís,San Pedro de Macoris,18.4504,-69.3,214
Bávaro,Bavaro,18.717,-68.45,214
Béni Ounif,Beni Ounif,32.0493,-1.2514,12
Algiers,Algiers,36.7631,3.0506,12
Hassi Messaoud,Hassi Messaoud,31.7023,6.0545,12
Ouargla,Ouargla,31.97,5.34,12
Touggourt,Touggourt,33.1,6.06,12
Djanet,Djanet,24.5529,9.4823,12
Illizi,Illizi,26.4834,8.4666,12
I-n-Amenas,I-n-Amenas,28.0503,9.55,12
Annaba,Annaba,36.92,7.76,12
El Oued,El Oued,33.3704,6.86,12
Laghouat,Laghouat,33.81,2.88,12
Tlimcen,Tlimcen,34.8904,-1.32,12
Oran,Oran,35.71,-0.62,12
Mostaganem,Mostaganem,35.9404,0.09,12
Relizane,Relizane,35.7373,0.556,12
Tissemsilt,Tissemsilt,35.6072,1.8108,12
Saïda,Saida,34.8404,0.14,12
Sidi bel Abbes,Sidi bel Abbes,35.1903,-0.64,12
Mascara,Mascara,35.4004,0.14,12
Chlef,Chlef,36.1704,1.32,12
Djelfa,Djelfa,34.68,3.25,12
Tiarat,Tiarat,35.3804,1.32,12
Aïn Defla,Ain Defla,36.2641,1.9679,12
Tipasa,Tipasa,36.5897,2.4475,12
Blida,Blida,36.4203,2.83,12
Béchar,Bechar,31.6111,-2.23,12
Ghardaia,Ghardaia,32.49,3.67,12
El Bayadh,El Bayadh,33.6904,1.01,12
Naama,Naama,33.2667,-0.3167,12
Adrar,Adrar,27.87,-0.29,12
El Goléa,El Golea,30.5666,2.8833,12
In Amguel,In Amguel,23.6939,5.1647,12
Tamanrasset,Tamanrasset,22.785,5.5228,12
Reggane,Reggane,26.7,0.1666,12
I-n-Salah,I-n-Salah,27.2166,2.4666,12
Tindouf,Tindouf,27.6742,-8.1478,12
Timimoun,Timimoun,29.2365,0.27,12
Médéa,Medea,36.2704,2.77,12
Boumerdes,Boumerdes,36.759,3.4748,12
Béjaïa,Bejaia,36.7604,5.07,12
Bouïra,Bouira,36.3805,3.9,12
Tizi-Ouzou,Tizi-Ouzou,36.8,4.0333,12
Bordj Bou Arréridj,Bordj Bou Arreridj,36.059,4.63,12
M'sila,M'sila,35.7,4.545,12
Biskra,Biskra,34.86,5.73,12
Batna,Batna,35.57,6.17,12
Guelma,Guelma,36.466,7.428,12
Skikda,Skikda,36.8804,6.9,12
Jijel,Jijel,36.822,5.766,12
Constantine,Constantine,36.36,6.5999,12
Sétif,Setif,36.18,5.4,12
Sefra,Sefra,32.7604,-0.5799,12
Abadla,Abadla,31.0171,-2.7333,12
El Tarf,El Tarf,36.7672,8.3138,12
Oum el Bouaghi,Oum el Bouaghi,35.85,7.15,12
Mila,Mila,36.4503,6.2644,12
Tébessa,Tebessa,35.4104,8.12,12
Khenchela,Khenchela,35.4358,7.1433,12
Souk Ahras,Souk Ahras,36.2904,7.95,12
Aïn Temouchent,Ain Temouchent,35.2975,-1.1404,12
Valdez,Valdez,1.2671,-78.9855,218
Piñas,Pinas,-3.67,-79.65,218
Alausí,Alausi,-2.19,-78.85,218
Yaupi,Yaupi,-2.8543,-77.9363,218
Quito,Quito,-0.215,-78.5001,218
San Gabriel,San Gabriel,0.61,-77.84,218
Jipijapa,Jipijapa,-1.3496,-80.58,218
Santa Cruz,Santa Cruz,-0.5333,-90.35,218
Puerto Villamil,Puerto Villamil,-0.9333,-91.0167,218
Cayambe,Cayambe,0.0504,-78.16,218
Salinas,Salinas,-2.2,-80.98,218
San Lorenzo,San Lorenzo,1.2704,-78.8601,218
Milagro,Milagro,-2.1796,-79.6,218
Muisne,Muisne,0.61,-80.02,218
Zamora,Zamora,-4.0696,-78.97,218
Nueva Loja,Nueva Loja,0.0906,-76.8884,218
Manta,Manta,-0.98,-80.73,218
Chone,Chone,-0.6896,-80.09,218
Sangolquí,Sangolqui,-0.31,-78.46,218
Macará,Macara,-4.3796,-79.95,218
Guayaquil,Guayaquil,-2.22,-79.92,218
Ibarra,Ibarra,0.3604,-78.13,218
Loja,Loja,-3.99,-79.21,218
Babahoyo,Babahoyo,-1.7996,-79.54,218
Portoviejo,Portoviejo,-1.06,-80.46,218
Macas,Macas,-2.3096,-78.12,218
Puyo,Puyo,-1.483,-77.987,218
Ambato,Ambato,-1.2696,-78.62,218
Tena,Tena,-0.9796,-77.81,218
Puerto Francisco de Orellana,Puerto Francisco de Orellana,-0.4664,-76.9872,218
Santo Domingo de los Colorados,Santo Domingo de los Colorados,-0.253,-79.1754,218
Santa Elena,Santa Elena,-2.2262,-80.8587,218
Puerto Baquerizo Moreno,Puerto Baquerizo Moreno,-0.9,-89.6,218
Cuenca,Cuenca,-2.9,-79,218
Guaranda,Guaranda,-1.61,-79.01,218
Azogues,Azogues,-2.74,-78.84,218
Tulcán,Tulcan,0.822,-77.732,218
Riobamba,Riobamba,-1.67,-78.65,218
Latacunga,Latacunga,-0.9296,-78.61,218
Machala,Machala,-3.26,-79.96,218
Esmeraldas,Esmeraldas,0.9304,-79.67,218
Valga,Valga,57.7744,26.0453,233
Viljandi,Viljandi,58.3639,25.59,233
Tallinn,Tallinn,59.4339,24.728,233
Kärdla,Kardla,58.9978,22.7492,233
Rakvere,Rakvere,59.3464,26.3558,233
Pärnu,Parnu,58.3747,24.5136,233
Paide,Paide,58.8856,25.5572,233
Jõgeva,Jogeva,58.7467,26.3939,233
Põlva,Polva,58.0603,27.0694,233
Tartu,Tartu,58.3839,26.7099,233
Rapla,Rapla,59.0072,24.7928,233
Kuressaare,Kuressaare,58.2481,22.5039,233
Jõhvi,Johvi,59.3592,27.4211,233
Võru,Voru,57.8339,27.0194,233
Haapsalu,Haapsalu,58.9431,23.5414,233
Kohtla-Järve,Kohtla-Jarve,59.4,27.2833,233
Narva,Narva,59.3776,28.1603,233
Berenice,Berenice,23.946,35.4842,818
Beni Mazar,Beni Mazar,28.4904,30.81,818
Samalut,Samalut,28.3004,30.71,818
El Mansura,El Mansura,31.0504,31.38,818
Mallawi,Mallawi,27.7304,30.84,818
El Minya,El Minya,28.09,30.75,818
Siwa,Siwa,29.2,25.5167,818
Matruh,Matruh,31.3504,27.23,818
Qena,Qena,26.1505,32.72,818
Salum,Salum,31.567,25.15,818
El Daba,El Daba,31.0338,28.4333,818
El Faiyum,El Faiyum,29.31,30.84,818
Asyut,Asyut,27.19,31.1799,818
Bur Safaga,Bur Safaga,26.7337,33.9333,818
El Alamein,El Alamein,30.8171,28.95,818
Kom Ombo,Kom Ombo,24.47,32.95,818
El Giza,El Giza,30.01,31.19,818
Isna,Isna,25.2904,32.5499,818
El Kharga,El Kharga,25.44,30.55,818
Qasr Farafra,Qasr Farafra,27.0671,27.9666,818
Girga,Girga,26.3304,31.88,818
El Qasr,El Qasr,25.7004,28.8833,818
Hurghada,Hurghada,27.23,33.83,818
Sohag,Sohag,26.5504,31.7,818
El Tur,El Tur,28.2394,33.6148,818
Bur Said,Bur Said,31.26,32.29,818
Tanta,Tanta,30.7904,31,818
Ismaïlia,Ismailia,30.5903,32.26,818
Suez,Suez,30.005,32.5499,818
Beni Suef,Beni Suef,29.0804,31.09,818
Aswan,Aswan,24.0875,32.8989,818
Cairo,Cairo,30.05,31.25,818
Benha,Benha,30.4667,31.1833,818
Dumyat,Dumyat,31.4204,31.82,818
Zagazig,Zagazig,30.5833,31.5167,818
Alexandria,Alexandria,31.2,29.95,818
Shibin el Kom,Shibin el Kom,30.592,30.9,818
El Arish,El Arish,31.1249,33.8006,818
Damanhûr,Damanhur,31.0504,30.47,818
Luxor,Luxor,25.7,32.65,818
Rashid,Rashid,31.4604,30.39,818
Kafr el Sheikh,Kafr el Sheikh,31.109,30.936,818
Tessenei,Tessenei,15.1104,36.6575,232
Mendefera,Mendefera,14.886,38.8163,232
Assab,Assab,13.01,42.73,232
Agordat,Agordat,15.549,37.8867,232
Barentu,Barentu,15.1058,37.5907,232
Massawa,Massawa,15.6101,39.45,232
Asmara,Asmara,15.3333,38.9333,232
Keren,Keren,15.6804,38.45,232
Vitoria,Vitoria,42.85,-2.67,724
Santander,Santander,43.3805,-3.8,724
Logroño,Logrono,42.4704,-2.43,724
Barcelona,Barcelona,41.3833,2.1834,724
Mataró,Mataro,41.54,2.45,724
Oviedo,Oviedo,43.3505,-5.83,724
Arrecife,Arrecife,28.969,-13.5378,724
Las Palmas,Las Palmas,28.1,-15.43,724
Toledo,Toledo,39.867,-4.0167,724
Lorca,Lorca,37.6886,-1.6985,724
Zaragoza,Zaragoza,41.65,-0.89,724
Murcia,Murcia,37.98,-1.13,724
Gijón,Gijon,43.53,-5.67,724
Linares,Linares,38.0833,-3.6334,724
Cartagena,Cartagena,37.6004,-0.98,724
Vigo,Vigo,42.22,-8.73,724
Valladolid,Valladolid,41.65,-4.75,724
Santiago de Compostela,Santiago de Compostela,42.8829,-8.5411,724
Mérida,Merida,38.912,-6.338,724
Algeciras,Algeciras,36.1267,-5.4665,724
Marbella,Marbella,36.5166,-4.8833,724
Almería,Almeria,36.8303,-2.43,724
Córdoba,Cordoba,37.88,-4.77,724
Granada‎,Granada,37.165,-3.585,724
Jaén,Jaen,37.7704,-3.8,724
Málaga,Malaga,36.7204,-4.42,724
Albacete,Albacete,39.0003,-1.87,724
Guadalajara,Guadalajara,40.6337,-3.1666,724
Burgos,Burgos,42.3504,-3.68,724
León,Leon,42.58,-5.57,724
Salamanca,Salamanca,40.9704,-5.67,724
Huelva,Huelva,37.2504,-6.9299,724
Cádiz,Cadiz,36.535,-6.225,724
Ceuta,Ceuta,35.889,-5.307,724
Melilla,Melilla,35.3,-2.95,724
Tarragona,Tarragona,41.1204,1.25,724
Badajoz,Badajoz,38.8804,-6.97,724
La Coruña,La Coruna,43.33,-8.42,724
Ourense,Ourense,42.33,-7.87,724
Bilbao,Bilbao,43.25,-2.93,724
Santa Cruz de Tenerife,Santa Cruz de Tenerife,28.47,-16.25,724
Seville,Seville,37.405,-5.98,724
Pamplona,Pamplona,42.82,-1.65,724
Palma,Palma,39.5743,2.6542,724
Valencia,Valencia,39.485,-0.4,724
Madrid,Madrid,40.4,-3.6834,724
San Sebastián,San Sebastian,43.3204,-1.98,724
Alicante,Alicante,38.3512,-0.4836,724
Castello,Castello,39.9704,-0.05,724
Adigrat,Adigrat,14.2804,39.47,231
Aksum,Aksum,14.1304,38.72,231
Gondar,Gonder,12.61,37.46,231
Nazret,Nazret,8.55,39.27,231
Sodo,Sodo,6.9,37.75,231
Asela,Asela,7.9504,39.1399,231
Dila,Dila,6.4104,38.31,231
Nagele,Nagele,5.3166,39.5833,231
Dembi Dolo,Dembi Dolo,8.5337,34.8,231
Dese,Dese,11.13,39.63,231
Bahir Dar,Bahir Dar,11.6001,37.3833,231
Hagere Hiywet,Hagere Hiywet,8.9804,37.85,231
Gode,Gode,5.95,43.45,231
Giyon,Giyon,8.5304,37.97,231
Shashemene,Shashemene,7.2004,38.59,231
Hosaina,Hosaina,7.5504,37.85,231
Nekemte,Nekemte,9.0905,36.53,231
Yirga Alem,Yirga Alem,6.7504,38.41,231
Gore,Gore,8.149,35.537,231
Gimbi,Gimbi,9.167,35.8333,231
Jima,Jima,7.68,36.83,231
Debre Markos,Debre Markos,10.34,37.72,231
Dolo Bay,Dolo Bay,4.1833,42.0833,231
Arba Minch,Arba Minch,6.04,37.55,231
Awasa,Awasa,7.06,38.477,231
Asosa,Asosa,10.067,34.5333,231
Gambēla,Gambela,8.25,34.5833,231
Jijiga,Jijiga,9.3504,42.79,231
Goba,Goba,7.01,39.97,231
Addis Ababa,Addis Ababa,9.0333,38.7,231
Semera,Semera,11.501,41.201,231
Bati,Bati,11.1837,40.0166,231
Dire Dawa,Dire Dawa,9.59,41.86,231
Mekele,Mekele,13.5,39.47,231
Debre Birhan,Debre Birhan,9.6804,39.53,231
Harar,Harar,9.32,42.15,231
Pori,Pori,61.4789,21.7749,246
Kuopio,Kuopio,62.8943,27.6949,246
Jyväskylä,Jyvaskyla,62.2603,25.75,246
Rovaniemi,Rovaniemi,66.5,25.7159,246
Lahti,Lahti,60.9939,25.6649,246
